{"platformData":{"state":{"name":"固废资源再利用云平台","city":"荆州市","adcode":"421000","center":"112.23813,30.326857","districts":[{"citycode":"0716","adcode":"421003","name":"荆州区","center":"112.195354,30.350674","level":"district","districts":[]},{"citycode":"0716","adcode":"421024","name":"江陵县","center":"112.41735,30.033919","level":"district","districts":[]},{"citycode":"0716","adcode":"421083","name":"洪湖市","center":"113.470304,29.81297","level":"district","districts":[]},{"citycode":"0716","adcode":"421023","name":"监利县","center":"112.904344,29.820079","level":"district","districts":[]},{"citycode":"0716","adcode":"421081","name":"石首市","center":"112.40887,29.716437","level":"district","districts":[]},{"citycode":"0716","adcode":"421087","name":"松滋市","center":"111.77818,30.176037","level":"district","districts":[]},{"citycode":"0716","adcode":"421002","name":"沙市区","center":"112.257433,30.315895","level":"district","districts":[]},{"citycode":"0716","adcode":"421022","name":"公安县","center":"112.230179,30.059065","level":"district","districts":[]}]},"alerms":{"name":"车辆报警类型","number":10,"timer":10,"list":[{"label":"超速驾驶","enable":true},{"label":"超载驾驶","enable":true},{"label":"疲劳驾驶","enable":true},{"label":"分神驾驶","enable":true},{"label":"接打电话","enable":true},{"label":"抽烟驾驶","enable":true},{"label":"前方碰撞","enable":true},{"label":"车道偏离","enable":true}]},"basedata":{"name":"基础数据：","tip":"演示平台的基本资产单位数据，平台将根据这些数据模拟生成动态数据，填入的数量为最大数量。","timer":30,"data":[{"id":11,"label":"车辆总数","unit":"辆","number":550,"required":true},{"id":12,"label":"在线车辆","unit":"辆","number":300,"required":true},{"id":13,"label":"停车车辆","unit":"辆","number":110,"required":false},{"id":14,"label":"离线车辆","unit":"辆","number":30,"required":false},{"id":15,"label":"设备损坏","unit":"辆","number":4,"required":false},{"id":21,"label":"工地总数","unit":"个","number":10,"required":true},{"id":22,"label":"开工工地","unit":"个","number":5,"required":true},{"id":23,"label":"出土量","unit":"立方","number":3510,"required":false},{"id":24,"label":"出土次数","unit":"次","number":125,"required":false},{"id":31,"label":"消纳点总数","unit":"个","number":1,"required":true},{"id":32,"label":"运营消纳点","unit":"个","number":1,"required":true},{"id":33,"label":"消纳量","unit":"立方","number":2710,"required":false},{"id":34,"label":"消纳次数","unit":"次","number":125,"required":false}]},"module":{"allmonitor":{"name":"全局监管","enable":true,"module":{"basedata":{"name":"基础监控数据：","tip":"由上一步基础数据得到左上角基本监控数据展示，您可以在这里修改展示字段名称，数量可通过返回上一步进行修改。也可以对展示项进行删减，建议最少留3项。","timer":1800,"data":[{"id":11,"label":"车辆总数","unit":"辆","number":550,"required":true},{"id":12,"label":"在线车辆","unit":"辆","number":300,"required":true},{"id":21,"label":"工地总数","unit":"个","number":10,"required":true},{"id":22,"label":"开工工地","unit":"个","number":5,"required":true},{"id":31,"label":"消纳点总数","unit":"个","number":1,"required":true},{"id":32,"label":"运营消纳点","unit":"个","number":1,"required":true}]},"operatedata":{"name":"运营数据:","data":[{"name":"-饼状图:","tip":"由上一步基础数据得到饼图运营数据，默认为车辆数据。也可以对展示项进行添加删减，不限项数，但要注意不要重复,数量为随机最大数","timer":1800,"list":[{"id":12,"label":"在线车辆","unit":"辆","number":300,"required":true},{"id":13,"label":"停车车辆","unit":"辆","number":110,"required":false},{"id":14,"label":"离线车辆","unit":"辆","number":30,"required":false},{"id":15,"label":"设备损坏","unit":"辆","number":4,"required":false}]},{"name":"-柱状图:","tip":"由上一步基础数据得到饼图运营数据，默认为出土/消纳运营数据。也可以对展示项进行添加删减，最多4个统计字段,数量为随机最大数","timer":1800,"list":[{"id":23,"label":"出土量","unit":"立方","number":3510,"required":false},{"id":24,"label":"出土次数","unit":"次","number":125,"required":false},{"id":33,"label":"消纳量","unit":"立方","number":2710,"required":false},{"id":34,"label":"消纳次数","unit":"次","number":125,"required":false}]}]},"producedata":{"name":"生产数据:","tip":"最多4个统计字段,默认为固废利用产出物统计。也可以酌情修改成其他统计数据。","timer":1800,"data":[{"id":1,"label":"拆迁渣土","unit":"吨","number":100},{"id":2,"label":"粗骨料","unit":"吨","number":710},{"id":3,"label":"细骨料","unit":"吨","number":710},{"id":4,"label":"钢筋","unit":"吨","number":710}]}}},"airmonitor":{"name":"环境监测","enable":true,"module":{}},"sitemonitor":{"name":"场站实时状况","enable":true,"module":{"fences":{"site":[{"name":"荆州1号","type":"site","icon":"el-icon-office-building","center":[112.2558026,30.335594399999998],"path":"[{\"lng\":112.253365,\"lat\":30.335013},{\"lng\":112.256369,\"lat\":30.338698},{\"lng\":112.259416,\"lat\":30.336569},{\"lng\":112.256605,\"lat\":30.332698},{\"lng\":112.253258,\"lat\":30.334994}]","door":{"enable":true,"path":""},"wash":{"enable":true,"path":""},"adcode":"421002","address":"湖北省荆州市沙市区立新乡荆沙大道266佳园","district":"沙市区"}],"landfill":[{"name":"","type":"landfill","icon":"el-icon-office-building","center":[112.21830299999999,30.339005800000002],"path":"[{\"lng\":112.218818,\"lat\":30.340198},{\"lng\":112.217316,\"lat\":30.339791},{\"lng\":112.217316,\"lat\":30.338958},{\"lng\":112.217702,\"lat\":30.337328},{\"lng\":112.220363,\"lat\":30.338754},{\"lng\":112.218818,\"lat\":30.340198},{\"lng\":112.217316,\"lat\":30.339791},{\"lng\":112.217316,\"lat\":30.338958},{\"lng\":112.217702,\"lat\":30.337328},{\"lng\":112.220363,\"lat\":30.338754}]","door":{"enable":true,"path":""},"wash":{"enable":true,"path":""},"adcode":"421003","address":"湖北省荆州市荆州区城南街道东环路10号护城河畔","district":"荆州区"}]},"airmonitor":{"enable":true,"type":[]}}}}},"simData":{"vechile":["鄂DF7G63","鄂DTO7L6","鄂DFVP6O","鄂D9R3NA","鄂DRK1AP","鄂DV4NYF","鄂DUAAOR","鄂DV59LK","鄂DL6RI8","鄂DBFIOS","鄂D186M1","鄂DJUOFB","鄂DQ1QUX","鄂D52ZCN","鄂D0VQSV","鄂DXND02","鄂D04P0O","鄂DZAULN","鄂DE1EHA","鄂DTK1CS","鄂DI6R18","鄂D18ELU","鄂DXWYYF","鄂D7Q1XE","鄂DWUFJK","鄂D3SAWD","鄂DZKIQJ","鄂DHVPFE","鄂DM0OI2","鄂DVM6QG","鄂D7OKGT","鄂DRZ8JE","鄂DFWPPK","鄂DD60ZZ","鄂DCTMUA","鄂DYKIMC","鄂D6NZHA","鄂D7J9L4","鄂D2OCSN","鄂DSYP8Z","鄂D6WLAL","鄂DHWU9P","鄂DMGHJX","鄂DYLY1D","鄂DD1BJ4","鄂DF64OW","鄂DPWSBY","鄂D059K8","鄂DVWG9E","鄂DOFETD","鄂DI6GMT","鄂D4KIVF","鄂DRIH1F","鄂DVMXM2","鄂DK0SF2","鄂DBLM9I","鄂D2C89Z","鄂DWZ81E","鄂DISCE5","鄂DKQY6N","鄂DF02QB","鄂DTJ9GZ","鄂DQDH7U","鄂DXZWGG","鄂D5CONF","鄂DQ4TFB","鄂DNM2NG","鄂DTBY6O","鄂DPCY6E","鄂DW6HML","鄂DUVPXC","鄂D8ANRT","鄂DAIDZM","鄂D1R2JM","鄂DSJRSB","鄂DC5DI0","鄂DPK17X","鄂DYQKGW","鄂DG72Q8","鄂DQCJV9","鄂DI9GO3","鄂DXURN9","鄂DLEGHQ","鄂DPHTW0","鄂DG8E3J","鄂DSVCF1","鄂DJJZIL","鄂D72O6Y","鄂D5S9HX","鄂D0RZG0","鄂DHPH8A","鄂DKATJ1","鄂D995M4","鄂DYT415","鄂DV1UHX","鄂DRZXDI","鄂DN5Q84","鄂DGNKUS","鄂DKGGQR","鄂DA6YGX","鄂DX7LUA","鄂DXQBUD","鄂DEW6AG","鄂DU3VVI","鄂DKNF5Y","鄂DXTQ26","鄂DFU7NA","鄂D9APDA","鄂DSPIRI","鄂D12BHW","鄂DD9DLF","鄂D7WPRG","鄂D9MW5G","鄂DGHOP4","鄂DM4FY5","鄂D18PMK","鄂D0H14Z","鄂DCY5TB","鄂DYZROD","鄂D85S83","鄂D2HGOI","鄂DQ534D","鄂DTEYN5","鄂D77QTA","鄂D4APGA","鄂D3551J","鄂D6QCGT","鄂DP145N","鄂DKDXPD","鄂DUXTYB","鄂D6DB15","鄂DANSI7","鄂DHRG2I","鄂D1VO4J","鄂DYCJKL","鄂D7POQF","鄂D1XBYV","鄂D4V9WY","鄂DVGLLF","鄂DMHK6B","鄂DPCPFS","鄂DW3LLF","鄂DZMSO8","鄂DWB1VW","鄂DLH0BD","鄂DIN9F4","鄂DXFTEN","鄂DIPD13","鄂D535DM","鄂DSJ1W4","鄂DZTF0W","鄂DVBVE3","鄂D1M6H2","鄂DGIIHX","鄂DA45L4","鄂DRS4OP","鄂DWZNEI","鄂DJ06JE","鄂DRCH3Z","鄂D3TVYH","鄂DA28I9","鄂DU74CN","鄂D6TPG2","鄂D15F1W","鄂DFE4ZO","鄂DI21X0","鄂DBAGVI","鄂DGRJTL","鄂D76J9Q","鄂DSCR5G","鄂DQLC1F","鄂DW5DE0","鄂D16OI2","鄂D3VOUG","鄂DKGTS9","鄂D7JNVJ","鄂DUHRPA","鄂DGVMM9","鄂DKSJWR","鄂D2VHJ1","鄂DJJFCT","鄂D2HE6J","鄂DDP52N","鄂D4ACAQ","鄂DSLRK8","鄂DC4Z9T","鄂DAS62J","鄂DIAH3T","鄂DG2V83","鄂DRKDLL","鄂D7Y943","鄂DEMSNT","鄂DV9F0Z","鄂DEBGWU","鄂DNBURV","鄂DY1K5A","鄂DTVCC5","鄂D8OAQ9","鄂D1B5MW","鄂D70DAF","鄂DPN9AU","鄂DQTOO0","鄂DH86UF","鄂D196ES","鄂DV6375","鄂DT0SJL","鄂DJ16SG","鄂DMQ9AP","鄂D0L5EW","鄂DGM1TS","鄂DS107U","鄂D82R3U","鄂D5HWGT","鄂DNEYF3","鄂DELCQW","鄂DWJU6U","鄂DIB6QY","鄂DW42CE","鄂DDWEKG","鄂DD0MUS","鄂D4LDFY","鄂DL5X5E","鄂DXQRFY","鄂DLJ0YM","鄂DJXTYN","鄂D3A7HI","鄂DMGJCG","鄂DCG56P","鄂DKM66D","鄂DBLEF5","鄂DEF8VR","鄂DDT1GV","鄂DLHICV","鄂D6ECMJ","鄂DYCA4T","鄂DU7BH3","鄂DRPY5C","鄂DBDNLF","鄂DYTBCH","鄂DT1DYG","鄂DOCRQG","鄂DD1W75","鄂DKBYT5","鄂DXLOTP","鄂D3RN6S","鄂D7OKVH","鄂DSCNTK","鄂DVY9X1","鄂DXOAPB","鄂DLPGMZ","鄂DIJVZP","鄂D9B8D6","鄂DUY8LA","鄂D8JA4H","鄂DRY6LS","鄂DBG0KL","鄂DRTN5D","鄂D8E63G","鄂DGL3Z0","鄂DAUZZR","鄂DJ7ESF","鄂DKK4R1","鄂D5OHZI","鄂D9FT2B","鄂DUQM6B","鄂D4BWNS","鄂D9YE2O","鄂DWZVBW","鄂D9B283","鄂D84VD8","鄂D3T9IT","鄂DZO30W","鄂DXV041","鄂D9FIO1","鄂DJ248R","鄂D71NCY","鄂D2KXJP","鄂DMTQHL","鄂D7BL84","鄂DACRFK","鄂DQS826","鄂DLX8WJ","鄂D5VFUA","鄂DXOZCX","鄂DW1URQ","鄂D00K90","鄂DX1OB0","鄂DYITAO","鄂DJ8CM4","鄂DK9SJK","鄂D2CTAS","鄂D4FTYJ","鄂DBXLF6","鄂DEOMJC","鄂DQKH3F","鄂D21Q3P","鄂DG9Z1R","鄂DHJNIG","鄂DFPQEE","鄂DTDOLF","鄂DZKZUX","鄂DRH8J2","鄂DYLHGE","鄂DDLS2V","鄂DHYVJS","鄂DJDKLD","鄂DQQX6R","鄂D98KCB","鄂DPIYEX","鄂DEW10W","鄂DPLSV8","鄂D95OFB","鄂DBQXLC","鄂D4P7FW","鄂DCHIOK","鄂DH0R1I","鄂D9XVUW","鄂DYW2Q0","鄂DL9J6K","鄂DOV4N1","鄂D922QU","鄂DCZBA8","鄂DEQHNW","鄂DZ0S3A","鄂D1H7AV","鄂DOBNF8","鄂DYROIH","鄂DFYOO7","鄂D521KQ","鄂D3BOZM","鄂DKZN0G","鄂DMVXQ6","鄂DUHXUM","鄂D7GIIP","鄂DXRWR8","鄂D72D13","鄂DEYC54","鄂DPGAHU","鄂DPVIXO","鄂DRPONW","鄂D3GDG2","鄂DTR7PI","鄂DED6N0","鄂DW8APX","鄂DH4XCL","鄂D32AUX","鄂DG8JO7","鄂D2FG1G","鄂DG5OOM","鄂D39RVL","鄂DQES03","鄂DHMW2D","鄂DPMJMW","鄂DRQO63","鄂DE39NX","鄂DGOSLZ","鄂DTISJD","鄂DG18BK","鄂D3OXYE","鄂DA5FCM","鄂DMI00P","鄂DY9CS5","鄂DDAGJE","鄂D9W8XB","鄂DUVKQ1","鄂DU0M9B","鄂DD6LU7","鄂DE1SHX","鄂D8VHCY","鄂DQI5XY","鄂DDPPSW","鄂DP3N92","鄂DBHBJK","鄂DXZW1N","鄂DJXWF5","鄂DM756Q","鄂DILALS","鄂DR32GB","鄂DBNDBO","鄂DCLMJX","鄂DQMMVI","鄂DRV0E1","鄂D32O8Y","鄂D5UOLY","鄂DWV85S","鄂DCR2PJ","鄂D0C7DP","鄂DUUQQK","鄂DXPBQ5","鄂DPSSR6","鄂D42UD0","鄂DY6TOT","鄂DIUASY","鄂D7LM86","鄂DDXYFV","鄂DUJVUM","鄂D6583I","鄂DHP7TR","鄂DLAYUN","鄂DTMV7E","鄂DLV3BL","鄂DU8KA0","鄂DUKSBV","鄂DVBYQJ","鄂DK641M","鄂DTVOUZ","鄂DODCCX","鄂DUH2UM","鄂D6BX95","鄂DRRKTE","鄂D03NAY","鄂DF57MB","鄂D0FPGV","鄂DVX042","鄂DO5G6Q","鄂DJJD3H","鄂D3GWZK","鄂DTQ1QV","鄂DR0PU8","鄂D06IPX","鄂DPUCPM","鄂DREUXQ","鄂DC681M","鄂D4C4XR","鄂DOMM0L","鄂D3FWLU","鄂D91IX7","鄂D2GURW","鄂D8ZMHJ","鄂DE615Z","鄂D40E9G","鄂DFG0V9","鄂DW95A3","鄂D8JV2U","鄂DEGD6M","鄂DXNG9K","鄂D0D6ID","鄂DRDKLP","鄂DS0MHC","鄂DPCG2W","鄂DT885L","鄂D61WH4","鄂DCMUV9","鄂DG7R9F","鄂DX4NJB","鄂DCAYHU","鄂D3QO8V","鄂DZFXQX","鄂DXHRI3","鄂D3YR59","鄂D5EQB8","鄂DOXURR","鄂D0BQ1T","鄂D8DRIV","鄂DZP0EO","鄂D5H7O6","鄂D1Y7UV","鄂DPIVD3","鄂DJYHJT","鄂DUU5HJ","鄂DL1T2C","鄂DAJ5MA","鄂D3RT4J","鄂DPZMSF","鄂D4AD8J","鄂DBJTAZ","鄂D6UFDM","鄂DX1RNX","鄂D9PG33","鄂DO2NFF","鄂D5XJCH","鄂DA5HHS","鄂DAFCNI","鄂DXCZHX","鄂DO2N86","鄂DW3RBV","鄂D39QMK","鄂DY01ZA","鄂D7IHR9","鄂DWT0VT","鄂D9SQIP","鄂DDDYWS","鄂DZ3HFY","鄂DAJ22S","鄂D2FBXA","鄂D6OVAL","鄂DNKWOD","鄂DYCL6G","鄂DMM2PX","鄂D5YMB7","鄂DIC0YD","鄂DDPBVP","鄂DANAJM","鄂DES6D0","鄂D4B89W","鄂DU45ID","鄂D97TVY","鄂D3SG0T","鄂D7C0JL","鄂DEGB16","鄂DQA2FL","鄂DKMT5U","鄂DAS012","鄂DU2PGC","鄂DF7LC7","鄂DFIY6S","鄂DUWFYG","鄂DVMUBQ","鄂D6IZJE","鄂DGWYUZ","鄂D21RD9","鄂DH19FT","鄂DMNEON","鄂DFP9BB","鄂DLUKRT","鄂DY1WWT","鄂DCJXHL","鄂D07OWQ","鄂DNKDM3","鄂DWCUY5","鄂DTV7RR","鄂DVXD11","鄂D3XI18","鄂DLKHES","鄂D3NQ29","鄂D1F70I","鄂D434A6","鄂DTAIXZ","鄂DD97H6","鄂DLAX86","鄂DUSG6R","鄂DV8YZT","鄂DSHBIQ","鄂DYQID4","鄂DAQK17","鄂D7NJEZ","鄂DDZ6YF","鄂DHUJQK","鄂DWPK2I","鄂D9CGV7","鄂DJEDT7","鄂DT97QT","鄂DKG4WH","鄂D3YU2P","鄂DS5ASX","鄂D7MIP7","鄂DKPYH4","鄂DDOWEO","鄂D9ZY01","鄂DZGP90"],"gps":[{"address":"荆三线","location":"112.163537,30.366069","adcode":"421003","adname":"荆州区"},{"address":"章田寺乡曾黄线新口路段,路东侧","location":"112.237390,29.833878","adcode":"421022","adname":"公安县"},{"address":"新华路1号(滩桥卫生院西)","location":"112.301101,30.161732","adcode":"421024","adname":"江陵县"},{"address":[],"location":"112.025762,29.832832","adcode":"421022","adname":"公安县"},{"address":"荆沙大道红门路桥东侧50米","location":"112.270475,30.322976","adcode":"421002","adname":"沙市区"},{"address":"103省道附近(乌林派出所东)","location":"113.608937,29.907573","adcode":"421083","adname":"洪湖市"},{"address":"发展三路与322省道交叉口西北100米","location":"112.219207,30.263814","adcode":"421022","adname":"公安县"},{"address":"汴河镇赤卫路东边墩路段,赤卫初中附近","location":"113.078160,29.809641","adcode":"421023","adname":"监利县"},{"address":"龙口镇","location":"113.773635,29.936823","adcode":"421083","adname":"洪湖市"},{"address":"公石路13-121号(公安县杨家厂农村信用合作社西)","location":"112.275470,30.060282","adcode":"421022","adname":"公安县"},{"address":"锣场镇318国道大观园农庄附近","location":"112.314075,30.361503","adcode":"421002","adname":"沙市区"},{"address":"章庄铺镇207国道襄东大道与二广高速交叉处、公路巡查大队章庄铺中队附近","location":"111.919813,29.884208","adcode":"421022","adname":"公安县"},{"address":"西环路115号","location":"112.166730,30.347159","adcode":"421003","adname":"荆州区"},{"address":"群星村","location":"111.831567,30.198120","adcode":"421087","adname":"松滋市"},{"address":"斑竹垱镇永丰村民委员会东南侧210米","location":"112.014327,30.041706","adcode":"421022","adname":"公安县"},{"address":"215省道东50米","location":"112.900907,29.895977","adcode":"421023","adname":"监利县"},{"address":"八岭山镇童桥村4组","location":"112.122126,30.399602","adcode":"421003","adname":"荆州区"},{"address":"拉家渡村,邮政储蓄银行附近","location":"111.899257,30.104366","adcode":"421087","adname":"松滋市"},{"address":"254省道北50米","location":"111.718801,30.208956","adcode":"421087","adname":"松滋市"},{"address":"农场北京东路95号","location":"112.294840,30.281939","adcode":"421002","adname":"沙市区"},{"address":"103省道西150米","location":"113.607765,29.907638","adcode":"421083","adname":"洪湖市"},{"address":"乌林镇帝豪宾馆对面","location":"113.607067,29.908056","adcode":"421083","adname":"洪湖市"},{"address":"乌林镇103省道旁","location":"113.610634,29.908842","adcode":"421083","adname":"洪湖市"},{"address":"乌林大市场","location":"113.606522,29.909124","adcode":"421083","adname":"洪湖市"},{"address":"103省道乌林派出所附近","location":"113.605922,29.908439","adcode":"421083","adname":"洪湖市"},{"address":"103省道乌林派出所北行50米","location":"113.605922,29.908439","adcode":"421083","adname":"洪湖市"},{"address":"乌林镇黄蓬大道","location":"113.605856,29.908480","adcode":"421083","adname":"洪湖市"},{"address":"乌林镇街道特1号韵达快递旁","location":"113.605773,29.908533","adcode":"421083","adname":"洪湖市"},{"address":"乌林中学旁","location":"113.605034,29.909339","adcode":"421083","adname":"洪湖市"},{"address":"103省道乌林镇中心学校附近","location":"113.604892,29.909427","adcode":"421083","adname":"洪湖市"},{"address":"103省道镇中心学校斜对面","location":"113.604770,29.909287","adcode":"421083","adname":"洪湖市"},{"address":"黄蓬大道乌林镇中心学校西南角","location":"113.604673,29.909487","adcode":"421083","adname":"洪湖市"},{"address":"103省道乌林派出所西北200米","location":"113.604501,29.909673","adcode":"421083","adname":"洪湖市"},{"address":"乌林街道乌林中学旁","location":"113.604260,29.910019","adcode":"421083","adname":"洪湖市"},{"address":"乌林镇","location":"113.602968,29.911671","adcode":"421083","adname":"洪湖市"},{"address":"乌林镇黄蓬大道松林特1号","location":"113.602971,29.911753","adcode":"421083","adname":"洪湖市"},{"address":"103省道乌林镇中心中学斜对面","location":"113.600550,29.905778","adcode":"421083","adname":"洪湖市"},{"address":[],"location":"112.235479,29.822701","adcode":"421022","adname":"公安县"},{"address":"章田寺初级中学旁边","location":"112.215847,29.851052","adcode":"421022","adname":"公安县"},{"address":"章田寺乡新建街165号","location":"112.214217,29.850634","adcode":"421022","adname":"公安县"},{"address":"朝阳路110号","location":"112.213410,29.849938","adcode":"421022","adname":"公安县"},{"address":"朝阳路8号附近","location":"112.213250,29.849819","adcode":"421022","adname":"公安县"},{"address":"朝阳路5号","location":"112.213359,29.849968","adcode":"421022","adname":"公安县"},{"address":"新建街与朝阳路交叉口东100米","location":"112.213980,29.850723","adcode":"421022","adname":"公安县"},{"address":"章田寺乡新建街","location":"112.213980,29.850723","adcode":"421022","adname":"公安县"},{"address":"朝阳路63号","location":"112.212854,29.850014","adcode":"421022","adname":"公安县"},{"address":"新建街与朝阳路交叉口东50米","location":"112.213461,29.850803","adcode":"421022","adname":"公安县"},{"address":"新建街164号","location":"112.212863,29.850620","adcode":"421022","adname":"公安县"},{"address":"新建街","location":"112.212828,29.850726","adcode":"421022","adname":"公安县"},{"address":"章田寺乡章田市场","location":"112.212747,29.850795","adcode":"421022","adname":"公安县"},{"address":"新建街与朝阳路交叉口西50米","location":"112.212701,29.850805","adcode":"421022","adname":"公安县"},{"address":"章田寺乡新建街87号","location":"112.212350,29.850936","adcode":"421022","adname":"公安县"},{"address":"章田寺乡南阳村村部","location":"112.206071,29.839878","adcode":"421022","adname":"公安县"},{"address":"民主路39附近","location":"112.211464,29.851532","adcode":"421022","adname":"公安县"},{"address":"民主路与民生路交叉口西南50米","location":"112.210815,29.851280","adcode":"421022","adname":"公安县"},{"address":"章田寺乡新建街56号","location":"112.210456,29.850992","adcode":"421022","adname":"公安县"},{"address":"新建街与民生路交叉口西100米","location":"112.210110,29.850879","adcode":"421022","adname":"公安县"},{"address":"立新乡荆沙大道与十号路交叉口号路3号","location":"112.268979,30.323880","adcode":"421002","adname":"沙市区"},{"address":"红门路与荆沙大道交叉口东北100米","location":"112.269030,30.324000","adcode":"421002","adname":"沙市区"},{"address":"十号路5号","location":"112.269156,30.324405","adcode":"421002","adname":"沙市区"},{"address":"立新乡红门路桥北30米第二电缆厂","location":"112.268750,30.324061","adcode":"421002","adname":"沙市区"},{"address":"十号路6号","location":"112.269359,30.324858","adcode":"421002","adname":"沙市区"},{"address":"红门路桥第二电缆厂旁","location":"112.269041,30.324738","adcode":"421002","adname":"沙市区"},{"address":"十号路7号","location":"112.269439,30.325038","adcode":"421002","adname":"沙市区"},{"address":"红门路8号附近","location":"112.269051,30.324874","adcode":"421002","adname":"沙市区"},{"address":"红门路桥北十号路150米处","location":"112.269507,30.325177","adcode":"421002","adname":"沙市区"},{"address":"立新乡张沟村二组15","location":"112.269156,30.325121","adcode":"421002","adname":"沙市区"},{"address":"10号路9号","location":"112.269757,30.325485","adcode":"421002","adname":"沙市区"},{"address":"红门路101号1","location":"112.267896,30.321383","adcode":"421002","adname":"沙市区"},{"address":"胜利街道红门北路88号","location":"112.267408,30.321386","adcode":"421002","adname":"沙市区"},{"address":"红门路西50米","location":"112.269660,30.326105","adcode":"421002","adname":"沙市区"},{"address":"红门路97-2号附近","location":"112.267638,30.320812","adcode":"421002","adname":"沙市区"},{"address":"关沮镇十号路富迪超市旁","location":"112.270046,30.326366","adcode":"421002","adname":"沙市区"},{"address":"十号路19号东北50米","location":"112.270121,30.326419","adcode":"421002","adname":"沙市区"},{"address":"红门路14号号附近","location":"112.269807,30.326431","adcode":"421002","adname":"沙市区"},{"address":"红门路97号","location":"112.267489,30.320593","adcode":"421002","adname":"沙市区"},{"address":"开发区滩桥镇南街加油站旁","location":"112.301275,30.161761","adcode":"421024","adname":"江陵县"},{"address":"祥云路与迎宾路交叉口东南50米","location":"112.301537,30.161782","adcode":"421024","adname":"江陵县"},{"address":"滩桥镇祥云路18号","location":"112.301460,30.161335","adcode":"421024","adname":"江陵县"},{"address":"祥云路48号","location":"112.301667,30.162076","adcode":"421024","adname":"江陵县"},{"address":"滩桥镇迎宾西路14号","location":"112.301989,30.161787","adcode":"421024","adname":"江陵县"},{"address":"祥云路与迎宾路交叉口东100米","location":"112.302118,30.161788","adcode":"421024","adname":"江陵县"},{"address":"新华路与迎宾路交叉口西100米","location":"112.302516,30.161792","adcode":"421024","adname":"江陵县"},{"address":"新华路与迎宾路交叉口西50米","location":"112.302697,30.161794","adcode":"421024","adname":"江陵县"},{"address":"新华路与迎宾路交叉口西南50米","location":"112.302893,30.161796","adcode":"421024","adname":"江陵县"},{"address":"新华路与迎宾路交叉口南150米","location":"112.302740,30.161065","adcode":"421024","adname":"江陵县"},{"address":"新华路与迎宾路交叉口西北50米","location":"112.302853,30.162192","adcode":"421024","adname":"江陵县"},{"address":"新华路1号","location":"112.302861,30.162284","adcode":"421024","adname":"江陵县"},{"address":"教育路39号附近","location":"112.302596,30.160727","adcode":"421024","adname":"江陵县"},{"address":"滩桥镇开发区教育路27号","location":"112.302840,30.161079","adcode":"421024","adname":"江陵县"},{"address":"教育路41号附近","location":"112.302576,30.160669","adcode":"421024","adname":"江陵县"},{"address":"新华路15号附近","location":"112.302839,30.162550","adcode":"421024","adname":"江陵县"},{"address":"新华路与迎宾路交叉口西北100米","location":"112.302835,30.162600","adcode":"421024","adname":"江陵县"},{"address":"教育路24号附近","location":"112.303131,30.161480","adcode":"421024","adname":"江陵县"},{"address":"新生村天天超市旁","location":"112.163826,30.366553","adcode":"421003","adname":"荆州区"},{"address":"北环路与荆三线交叉口西南50米","location":"112.164129,30.365637","adcode":"421003","adname":"荆州区"},{"address":"荆三线与西环路交叉口北100米","location":"112.164091,30.366585","adcode":"421003","adname":"荆州区"},{"address":"北环路与荆三线交叉口东北50米","location":"112.164414,30.366045","adcode":"421003","adname":"荆州区"},{"address":"郢城镇新生村一组","location":"112.163453,30.366930","adcode":"421003","adname":"荆州区"},{"address":"郢城镇西环路277号","location":"112.164310,30.365486","adcode":"421003","adname":"荆州区"},{"address":"西环路277号","location":"112.164365,30.365481","adcode":"421003","adname":"荆州区"},{"address":"郢城镇西环路73号","location":"112.164396,30.365438","adcode":"421003","adname":"荆州区"},{"address":"北环路与荆三线交叉口南50米","location":"112.164417,30.365400","adcode":"421003","adname":"荆州区"},{"address":"西环路288号","location":"112.164743,30.365549","adcode":"421003","adname":"荆州区"},{"address":"G318(北环路)","location":"112.164910,30.366009","adcode":"421003","adname":"荆州区"},{"address":"西环路271号附近","location":"112.164645,30.365249","adcode":"421003","adname":"荆州区"},{"address":"郢城镇318国道新生村十字路口红绿灯下","location":"112.165031,30.366029","adcode":"421003","adname":"荆州区"},{"address":"西环路282号附近","location":"112.164686,30.365207","adcode":"421003","adname":"荆州区"},{"address":"西环路284号","location":"112.164907,30.365360","adcode":"421003","adname":"荆州区"},{"address":"北环路452号附近","location":"112.165200,30.366048","adcode":"421003","adname":"荆州区"},{"address":"郑公中学","location":"112.023582,29.827496","adcode":"421022","adname":"公安县"},{"address":"汪郑线东50米","location":"112.023890,29.826538","adcode":"421022","adname":"公安县"},{"address":"郑公社区西街","location":"112.023690,29.824020","adcode":"421022","adname":"公安县"},{"address":"南街与集贸街交叉口东150米","location":"112.027334,29.823079","adcode":"421022","adname":"公安县"},{"address":"南街与汪郑线交叉口西200米","location":"112.022746,29.823137","adcode":"421022","adname":"公安县"},{"address":"南街与汪郑线交叉口东南100米","location":"112.024770,29.822771","adcode":"421022","adname":"公安县"},{"address":"郑公镇西街55号","location":"112.024601,29.822777","adcode":"421022","adname":"公安县"},{"address":"汪家汊街173号附近","location":"112.036479,29.869069","adcode":"421022","adname":"公安县"},{"address":"汪家汊街53号附近","location":"112.036920,29.869617","adcode":"421022","adname":"公安县"},{"address":"章庄铺镇汪家汊加油站","location":"112.036903,29.869855","adcode":"421022","adname":"公安县"},{"address":"汪家汊街58号附近","location":"112.036368,29.870369","adcode":"421022","adname":"公安县"},{"address":"汪家汊街62号附近","location":"112.036349,29.870608","adcode":"421022","adname":"公安县"},{"address":"汪家汊街108号附近","location":"112.036306,29.871097","adcode":"421022","adname":"公安县"},{"address":"汪家汊街与207国道交叉口西50米","location":"112.035714,29.874804","adcode":"421022","adname":"公安县"},{"address":"双湖路附近","location":"112.091110,29.829807","adcode":"421022","adname":"公安县"},{"address":"207国道东50米","location":"112.056820,29.885391","adcode":"421022","adname":"公安县"},{"address":"226省道西100米","location":"112.092176,29.849802","adcode":"421022","adname":"公安县"},{"address":"226省道西50米","location":"112.092757,29.849518","adcode":"421022","adname":"公安县"},{"address":"226省道东50米","location":"112.093123,29.849391","adcode":"421022","adname":"公安县"},{"address":"中山路好公道超市旁","location":"113.771417,29.935209","adcode":"421083","adname":"洪湖市"},{"address":"振兴路与新新路交叉口东50米","location":"113.769644,29.937415","adcode":"421083","adname":"洪湖市"},{"address":"龙口镇新新路45号","location":"113.769511,29.937417","adcode":"421083","adname":"洪湖市"},{"address":"S329振兴路和新新路交叉口","location":"113.769386,29.937420","adcode":"421083","adname":"洪湖市"},{"address":"振兴路与新新路交叉口北100米","location":"113.769079,29.937929","adcode":"421083","adname":"洪湖市"},{"address":"振兴路与新新路交叉口西北50米","location":"113.768950,29.937499","adcode":"421083","adname":"洪湖市"},{"address":"329省道南50米","location":"113.771564,29.940546","adcode":"421083","adname":"洪湖市"},{"address":"龙口镇东风大道","location":"113.771691,29.940625","adcode":"421083","adname":"洪湖市"},{"address":"龙口镇龙口小学斜对门","location":"113.769073,29.938477","adcode":"421083","adname":"洪湖市"},{"address":"振兴路与新新路交叉口北150米","location":"113.769073,29.938549","adcode":"421083","adname":"洪湖市"},{"address":"龙口街道龙口中学旁","location":"113.768948,29.938510","adcode":"421083","adname":"洪湖市"},{"address":"龙口中学对面","location":"113.769398,29.939258","adcode":"421083","adname":"洪湖市"},{"address":"龙口镇东风新区","location":"113.770676,29.940443","adcode":"421083","adname":"洪湖市"},{"address":"龙口镇蔬菜东风大道卧龙·金华庭","location":"113.770944,29.940901","adcode":"421083","adname":"洪湖市"},{"address":"振兴路与329省道交叉口东100米","location":"113.770015,29.940403","adcode":"421083","adname":"洪湖市"},{"address":"振兴路与329省道交叉口东50米","location":"113.769505,29.940312","adcode":"421083","adname":"洪湖市"},{"address":"城建小区(洪湖市龙口镇政府东)","location":"113.770049,29.941099","adcode":"421083","adname":"洪湖市"},{"address":"发展三路49附近","location":"112.218722,30.278040","adcode":"421022","adname":"公安县"},{"address":"发展二路南150米","location":"112.221638,30.278713","adcode":"421022","adname":"公安县"},{"address":"桥南新区","location":"112.221169,30.281445","adcode":"421022","adname":"公安县"},{"address":"埠河镇二广高速公路桥南服务区桥南服务区荆州市长江公路大桥路政执法大队附近","location":"112.220150,30.284390","adcode":"421022","adname":"公安县"},{"address":"埠河镇荆江路变电站旁","location":"112.225084,30.285065","adcode":"421022","adname":"公安县"},{"address":"荆江路西100米","location":"112.225489,30.286690","adcode":"421022","adname":"公安县"},{"address":"观音当镇荆江路315号","location":"112.229995,30.287195","adcode":"421022","adname":"公安县"},{"address":"窖金路与胜利街交叉口东南50米","location":"112.232373,30.287472","adcode":"421022","adname":"公安县"},{"address":"窖金路3号","location":"112.232062,30.288003","adcode":"421022","adname":"公安县"},{"address":"窖金路与胜利街交叉口东100米","location":"112.233180,30.287581","adcode":"421022","adname":"公安县"},{"address":"胜利街264号附近","location":"112.233229,30.287588","adcode":"421022","adname":"公安县"},{"address":"埠河镇荆江路264号","location":"112.233325,30.287602","adcode":"421022","adname":"公安县"},{"address":"埠河镇荆江大道朱胖子酒楼旁","location":"112.233332,30.287602","adcode":"421022","adname":"公安县"},{"address":"埠河中学旁","location":"112.233819,30.287984","adcode":"421022","adname":"公安县"},{"address":"荆江路196号","location":"112.234296,30.288133","adcode":"421022","adname":"公安县"},{"address":"振兴路69号附近","location":"112.239963,30.284946","adcode":"421022","adname":"公安县"},{"address":"埠河镇财政管理所旁","location":"112.231547,30.289614","adcode":"421022","adname":"公安县"},{"address":"埠河镇埠河中学","location":"112.234925,30.288234","adcode":"421022","adname":"公安县"},{"address":"埠河中学左侧","location":"112.234868,30.288286","adcode":"421022","adname":"公安县"},{"address":"新建街32号","location":"112.240377,30.284999","adcode":"421022","adname":"公安县"},{"address":"汴河镇赤卫路中国农业银行西100米","location":"113.083762,29.809537","adcode":"421023","adname":"监利县"},{"address":"S49随岳高速附近","location":"113.071940,29.809458","adcode":"421023","adname":"监利县"},{"address":"汴河镇工商所对面","location":"113.085461,29.809339","adcode":"421023","adname":"监利县"},{"address":"汴河镇","location":"113.086354,29.810792","adcode":"421023","adname":"监利县"},{"address":"赤卫路101附近","location":"113.087999,29.809719","adcode":"421023","adname":"监利县"},{"address":"赤卫路113附近","location":"113.088970,29.809950","adcode":"421023","adname":"监利县"},{"address":"汴河街赤卫路122号","location":"113.089283,29.809975","adcode":"421023","adname":"监利县"},{"address":"赤卫路122号附近","location":"113.089422,29.810011","adcode":"421023","adname":"监利县"},{"address":"S49随岳高速汴河镇政府西侧","location":"113.089642,29.809337","adcode":"421023","adname":"监利县"},{"address":"赤卫路140附近","location":"113.089714,29.810094","adcode":"421023","adname":"监利县"},{"address":"赤卫路139号附近","location":"113.089736,29.810084","adcode":"421023","adname":"监利县"},{"address":"赤卫路141号附近","location":"113.089818,29.810105","adcode":"421023","adname":"监利县"},{"address":"赤卫路145号","location":"113.089945,29.809934","adcode":"421023","adname":"监利县"},{"address":"赤卫路南50米","location":"113.089968,29.809858","adcode":"421023","adname":"监利县"},{"address":"汴河镇赤卫路98号","location":"113.090197,29.809975","adcode":"421023","adname":"监利县"},{"address":"汴河镇赤卫路172号","location":"113.090307,29.810012","adcode":"421023","adname":"监利县"},{"address":"赤卫路南100米","location":"113.090404,29.809565","adcode":"421023","adname":"监利县"},{"address":"汴河镇家家旺超市斜对面","location":"113.090442,29.810061","adcode":"421023","adname":"监利县"},{"address":"汴河镇家家旺超市对面","location":"113.090442,29.810061","adcode":"421023","adname":"监利县"},{"address":"杨家厂镇杨麻线中国邮政旁","location":"112.285683,30.061898","adcode":"421022","adname":"公安县"},{"address":"杨麻线与移民路交叉口北50米","location":"112.286008,30.061804","adcode":"421022","adname":"公安县"},{"address":"杨家厂镇新正街440号","location":"112.287752,30.061252","adcode":"421022","adname":"公安县"},{"address":"杨麻线附近","location":"112.288384,30.061063","adcode":"421022","adname":"公安县"},{"address":"建设路与杨麻线交叉口西北50米","location":"112.288696,30.060969","adcode":"421022","adname":"公安县"},{"address":"杨厂镇新正街578号杨厂营业厅","location":"112.288936,30.060898","adcode":"421022","adname":"公安县"},{"address":"建设路与杨麻线交叉口东南50米","location":"112.289213,30.060399","adcode":"421022","adname":"公安县"},{"address":"建设路与杨麻线交叉口东50米","location":"112.289344,30.060775","adcode":"421022","adname":"公安县"},{"address":"杨麻线与集贸路交叉口西100米","location":"112.289637,30.060271","adcode":"421022","adname":"公安县"},{"address":"杨麻线与集贸路交叉口东北50米","location":"112.290527,30.060426","adcode":"421022","adname":"公安县"},{"address":"杨麻线与集贸路交叉口东50米","location":"112.290669,30.060385","adcode":"421022","adname":"公安县"},{"address":"杨麻线与集贸路交叉口东100米","location":"112.290867,30.060328","adcode":"421022","adname":"公安县"},{"address":"杨麻线北50米","location":"112.292034,30.059978","adcode":"421022","adname":"公安县"},{"address":"杨家厂地税局附近","location":"112.292333,30.059256","adcode":"421022","adname":"公安县"},{"address":"杨麻线南100米","location":"112.292338,30.059032","adcode":"421022","adname":"公安县"},{"address":"杨麻线南50米","location":"112.292835,30.059327","adcode":"421022","adname":"公安县"},{"address":"章庄铺镇襄东大道脉气弯加油站西50米","location":"111.919338,29.884466","adcode":"421022","adname":"公安县"},{"address":"襄东大道564附近","location":"111.918959,29.883837","adcode":"421022","adname":"公安县"},{"address":"襄东大道524附近","location":"111.920927,29.884511","adcode":"421022","adname":"公安县"},{"address":"襄东大道568号附近","location":"111.918579,29.883708","adcode":"421022","adname":"公安县"},{"address":"襄东大道南50米","location":"111.921110,29.884609","adcode":"421022","adname":"公安县"},{"address":"襄东大道518附近","location":"111.921123,29.884644","adcode":"421022","adname":"公安县"},{"address":"襄东大道庄盛肥业公司东侧100米","location":"111.917862,29.883481","adcode":"421022","adname":"公安县"},{"address":"章庄铺镇襄东大道450号","location":"111.922672,29.885523","adcode":"421022","adname":"公安县"},{"address":"襄东大道374号附近","location":"111.928481,29.887044","adcode":"421022","adname":"公安县"},{"address":"章庄铺镇南北商贸城对面","location":"111.928398,29.887329","adcode":"421022","adname":"公安县"},{"address":"襄东大道358号附近","location":"111.928895,29.887533","adcode":"421022","adname":"公安县"},{"address":"襄东大道东150米","location":"111.929520,29.886365","adcode":"421022","adname":"公安县"},{"address":"207国道与G55二广高速交叉口东100米","location":"111.910122,29.881975","adcode":"421022","adname":"公安县"},{"address":"襄东大道352号附近","location":"111.929480,29.887223","adcode":"421022","adname":"公安县"},{"address":"襄东大道北200米","location":"111.928585,29.889107","adcode":"421022","adname":"公安县"},{"address":"襄东大道346号附近","location":"111.929654,29.887292","adcode":"421022","adname":"公安县"},{"address":"襄东大道342号附近","location":"111.929662,29.887295","adcode":"421022","adname":"公安县"},{"address":"襄东大道350号附近","location":"111.929486,29.887756","adcode":"421022","adname":"公安县"},{"address":"襄东大道北100米","location":"111.929415,29.888450","adcode":"421022","adname":"公安县"},{"address":"长湖村一号路与318国道交叉口西150米","location":"112.313490,30.361873","adcode":"421002","adname":"沙市区"},{"address":"向湖村十支渠路与318国道交叉口西北100米","location":"112.316554,30.360884","adcode":"421002","adname":"沙市区"},{"address":"向湖村十支渠路与318国道交叉口东南200米","location":"112.318461,30.359732","adcode":"421002","adname":"沙市区"},{"address":"关沮四组花木市场旁","location":"112.307199,30.364873","adcode":"421002","adname":"沙市区"},{"address":"向湖村3组23号","location":"112.325854,30.357304","adcode":"421002","adname":"沙市区"},{"address":"锣场镇向湖村四组55","location":"112.327219,30.357064","adcode":"421002","adname":"沙市区"},{"address":"桂鱼路与318国道交叉口西150米","location":"112.329538,30.356883","adcode":"421002","adname":"沙市区"},{"address":"318国道银湖工业园A14-2号","location":"112.299502,30.352879","adcode":"421002","adname":"沙市区"},{"address":"318国道西100米","location":"112.296010,30.364137","adcode":"421002","adname":"沙市区"},{"address":"318国道西50米","location":"112.295861,30.363606","adcode":"421002","adname":"沙市区"},{"address":"关沮镇318国道北侧","location":"112.295688,30.358145","adcode":"421002","adname":"沙市区"},{"address":"凤凰村路东50米","location":"112.298997,30.371792","adcode":"421002","adname":"沙市区"},{"address":"银湖时代北宇鑫物流院内","location":"112.293749,30.358592","adcode":"421002","adname":"沙市区"},{"address":"关沮镇银湖时代斜318国道宇鑫物流院内","location":"112.293768,30.358252","adcode":"421002","adname":"沙市区"},{"address":"318国道附近","location":"112.293783,30.358060","adcode":"421002","adname":"沙市区"},{"address":"银湖时代斜对面318国道边","location":"112.293698,30.358340","adcode":"421002","adname":"沙市区"},{"address":"郢城镇西环路11号","location":"112.166607,30.347096","adcode":"421003","adname":"荆州区"},{"address":"西环路113号","location":"112.166615,30.347019","adcode":"421003","adname":"荆州区"},{"address":"四机路16号","location":"112.167738,30.346447","adcode":"421003","adname":"荆州区"},{"address":"四机路121号","location":"112.167441,30.346118","adcode":"421003","adname":"荆州区"},{"address":"四机路121号三楼","location":"112.167441,30.346118","adcode":"421003","adname":"荆州区"},{"address":"四机路121号附近","location":"112.167478,30.346127","adcode":"421003","adname":"荆州区"},{"address":"四机路95号附近","location":"112.167373,30.346031","adcode":"421003","adname":"荆州区"},{"address":"四机路靠近荆州石油四机医院斜对面","location":"112.167589,30.346087","adcode":"421003","adname":"荆州区"},{"address":"四机路119号附近","location":"112.167440,30.346005","adcode":"421003","adname":"荆州区"},{"address":"四机路119号","location":"112.167671,30.345974","adcode":"421003","adname":"荆州区"},{"address":"四机厂四机医院对面","location":"112.167716,30.345956","adcode":"421003","adname":"荆州区"},{"address":"四机路与白龙五路交叉口西50米","location":"112.167758,30.345939","adcode":"421003","adname":"荆州区"},{"address":"四机路107号","location":"112.167763,30.345937","adcode":"421003","adname":"荆州区"},{"address":"四机路107号(四机厂天天超市)","location":"112.168416,30.345629","adcode":"421003","adname":"荆州区"},{"address":"四机路与白龙五路交叉口东南50米","location":"112.168438,30.345628","adcode":"421003","adname":"荆州区"},{"address":"四机路105号","location":"112.168486,30.345602","adcode":"421003","adname":"荆州区"},{"address":"四机路102号","location":"112.168558,30.345574","adcode":"421003","adname":"荆州区"},{"address":"四机路95号","location":"112.168763,30.345495","adcode":"421003","adname":"荆州区"},{"address":"金松大道南50米","location":"111.826314,30.201422","adcode":"421087","adname":"松滋市"},{"address":"金松大道东50米","location":"111.815367,30.201765","adcode":"421087","adname":"松滋市"},{"address":"金松大道西50米","location":"111.814931,30.201929","adcode":"421087","adname":"松滋市"},{"address":"福润多购物广场南(322省道南)","location":"111.814412,30.201162","adcode":"421087","adname":"松滋市"},{"address":"八宝东岳","location":"111.813927,30.201350","adcode":"421087","adname":"松滋市"},{"address":"八宝镇东岳原种场村二组","location":"111.808797,30.198741","adcode":"421087","adname":"松滋市"},{"address":[],"location":"111.852347,30.187453","adcode":"421087","adname":"松滋市"},{"address":"金松大道北50米附近","location":"111.805285,30.197418","adcode":"421087","adname":"松滋市"},{"address":"金松大道北50米","location":"111.804189,30.196989","adcode":"421087","adname":"松滋市"},{"address":"中心街(斑竹垱邮政支局对面)","location":"112.016669,30.050287","adcode":"421022","adname":"公安县"},{"address":"中心街331号","location":"112.017162,30.050309","adcode":"421022","adname":"公安县"},{"address":"河街与育才路交叉口西北150米","location":"112.017111,30.050403","adcode":"421022","adname":"公安县"},{"address":[],"location":"112.012130,30.050694","adcode":"421022","adname":"公安县"},{"address":"斑竹档镇育才路四十六号","location":"112.014616,30.051479","adcode":"421022","adname":"公安县"},{"address":"斑竹垱镇育才街","location":"112.014393,30.051557","adcode":"421022","adname":"公安县"},{"address":"刘友家电(公安县斑竹垱镇政府西北)","location":"112.017227,30.051512","adcode":"421022","adname":"公安县"},{"address":"斑竹垱镇育才街3号","location":"112.014810,30.051862","adcode":"421022","adname":"公安县"},{"address":"斑竹垱镇黄张线东港中学东北150米","location":"112.015360,30.052444","adcode":"421022","adname":"公安县"},{"address":"中心街巴黎婚纱摄影旁","location":"112.015417,30.052492","adcode":"421022","adname":"公安县"},{"address":"斑竹垱镇中心街183号","location":"112.015133,30.052798","adcode":"421022","adname":"公安县"},{"address":"中央新城(黄张线南100米)","location":"112.014580,30.053311","adcode":"421022","adname":"公安县"},{"address":"汪杨线北50米","location":"111.963463,30.013425","adcode":"421022","adname":"公安县"},{"address":"茅穗里街与黄张线交叉口东50米","location":"112.074842,30.042752","adcode":"421022","adname":"公安县"},{"address":"毛家港镇茅穗里街4号","location":"112.075149,30.042502","adcode":"421022","adname":"公安县"},{"address":"黄张线南50米","location":"112.076362,30.042567","adcode":"421022","adname":"公安县"},{"address":"狮子口镇解放街34号","location":"112.016330,29.984210","adcode":"421022","adname":"公安县"},{"address":"利民巷与新建街交叉口东50米","location":"112.014670,29.984061","adcode":"421022","adname":"公安县"},{"address":"狮子口镇狮子口镇新建街200号","location":"112.015407,29.983609","adcode":"421022","adname":"公安县"},{"address":"解放街73号","location":"112.017700,29.983420","adcode":"421022","adname":"公安县"},{"address":[],"location":"112.888023,29.907471","adcode":"421023","adname":"监利县"},{"address":[],"location":"112.879768,29.901623","adcode":"421023","adname":"监利县"},{"address":"观音村5组","location":"112.875610,29.906670","adcode":"421023","adname":"监利县"},{"address":"毛市镇041县道","location":"112.928029,29.908065","adcode":"421023","adname":"监利县"},{"address":"合兴村附近","location":"112.869587,29.901604","adcode":"421023","adname":"监利县"},{"address":[],"location":"112.920426,29.865761","adcode":"421023","adname":"监利县"},{"address":[],"location":"112.929992,29.870520","adcode":"421023","adname":"监利县"},{"address":[],"location":"112.937963,29.918073","adcode":"421023","adname":"监利县"},{"address":"杨铺村江城北路与发展大道交汇处红绿灯路口","location":"112.905818,29.857108","adcode":"421023","adname":"监利县"},{"address":"容城镇新汽车站对面","location":"112.905511,29.852426","adcode":"421023","adname":"监利县"},{"address":"北环大道百晟广场附近江城路北走700米处","location":"112.907036,29.852498","adcode":"421023","adname":"监利县"},{"address":[],"location":"112.902420,29.849194","adcode":"421023","adname":"监利县"},{"address":"杨铺村9组1号","location":"112.905432,29.849288","adcode":"421023","adname":"监利县"},{"address":"北环大道北150米","location":"112.906670,29.849361","adcode":"421023","adname":"监利县"},{"address":"北环大道北200米附近","location":"112.901330,29.848852","adcode":"421023","adname":"监利县"},{"address":"北环大道北200米","location":"112.901823,29.848773","adcode":"421023","adname":"监利县"},{"address":"花新线北50米","location":"112.117992,30.399706","adcode":"421003","adname":"荆州区"},{"address":"八领山镇杨场粮站","location":"112.114399,30.398810","adcode":"421003","adname":"荆州区"},{"address":"花新线与龙山街交叉口南50米","location":"112.112421,30.399349","adcode":"421003","adname":"荆州区"},{"address":"八岭山镇龙山街20号","location":"112.112389,30.398928","adcode":"421003","adname":"荆州区"},{"address":"八岭山镇菜市场","location":"112.111929,30.399316","adcode":"421003","adname":"荆州区"},{"address":"花新线与龙山街交叉口南150米路西","location":"112.111902,30.398865","adcode":"421003","adname":"荆州区"},{"address":"关羽路与龙山街交叉口西100米","location":"112.111725,30.398046","adcode":"421003","adname":"荆州区"},{"address":"连郢路76号","location":"112.111500,30.399730","adcode":"421003","adname":"荆州区"},{"address":"花新线","location":"112.111096,30.399736","adcode":"421003","adname":"荆州区"},{"address":"利民街与花新线交叉口东北50米","location":"112.111025,30.399903","adcode":"421003","adname":"荆州区"},{"address":"关羽路与花新线交叉口东100米","location":"112.111053,30.398094","adcode":"421003","adname":"荆州区"},{"address":"杨场街78号附近","location":"112.110920,30.399058","adcode":"421003","adname":"荆州区"},{"address":"杨场街62号","location":"112.110881,30.399358","adcode":"421003","adname":"荆州区"},{"address":"关羽路与花新线交叉口东50米","location":"112.110927,30.397841","adcode":"421003","adname":"荆州区"},{"address":"关羽路与花新线交叉口北50米","location":"112.110724,30.398117","adcode":"421003","adname":"荆州区"},{"address":"关羽路与花新线交叉口东北50米","location":"112.110716,30.398118","adcode":"421003","adname":"荆州区"},{"address":"八岭山镇杨场街51号","location":"112.110570,30.398942","adcode":"421003","adname":"荆州区"},{"address":"杨场街51附近","location":"112.110533,30.398956","adcode":"421003","adname":"荆州区"},{"address":"关羽路26号","location":"112.110619,30.398030","adcode":"421003","adname":"荆州区"},{"address":"054县道西50米","location":"111.899595,30.103547","adcode":"421087","adname":"松滋市"},{"address":"054县道东50米","location":"111.899854,30.103076","adcode":"421087","adname":"松滋市"},{"address":"东湖购物广场(岳宜高速公路北)","location":"111.852524,30.061741","adcode":"421087","adname":"松滋市"},{"address":"白水沟村5组镇政府旁","location":"111.903855,30.169064","adcode":"421087","adname":"松滋市"},{"address":"322省道南50米","location":"111.926593,30.165116","adcode":"421087","adname":"松滋市"},{"address":"龟咀村8组71号","location":"111.926692,30.165090","adcode":"421087","adname":"松滋市"},{"address":"322省道东200米","location":"111.929700,30.164011","adcode":"421087","adname":"松滋市"},{"address":"322省道北50米","location":"111.925322,30.165846","adcode":"421087","adname":"松滋市"},{"address":"沙道观镇322省道南(中国农业银行西南350米)","location":"111.928544,30.164884","adcode":"421087","adname":"松滋市"},{"address":"八宝镇大桥路众鑫米业","location":"111.928236,30.165216","adcode":"421087","adname":"松滋市"},{"address":"中渡口村96号","location":"111.928324,30.165220","adcode":"421087","adname":"松滋市"},{"address":"322省道西50米","location":"111.917329,30.168857","adcode":"421087","adname":"松滋市"},{"address":"254省道南50米","location":"111.719166,30.208455","adcode":"421087","adname":"松滋市"},{"address":"木天河村木天河桥","location":"111.715779,30.209874","adcode":"421087","adname":"松滋市"},{"address":"新江口镇木天河村","location":"111.720805,30.206730","adcode":"421087","adname":"松滋市"},{"address":"254省道东50米","location":"111.715408,30.211442","adcode":"421087","adname":"松滋市"},{"address":[],"location":"111.722413,30.190114","adcode":"421087","adname":"松滋市"},{"address":[],"location":"111.733959,30.186895","adcode":"421087","adname":"松滋市"},{"address":[],"location":"111.715768,30.180388","adcode":"421087","adname":"松滋市"},{"address":"新江口镇德胜垸村6组","location":"111.748603,30.196030","adcode":"421087","adname":"松滋市"},{"address":"254省道西50米","location":"111.749034,30.196475","adcode":"421087","adname":"松滋市"},{"address":"S332西流村","location":"111.722357,30.178600","adcode":"421087","adname":"松滋市"},{"address":"332省道北100米","location":"111.720122,30.177981","adcode":"421087","adname":"松滋市"},{"address":"乌林镇曹操湾东侧,悦兮半岛国际温泉度假村","location":"113.594961,29.909613","adcode":"421083","adname":"洪湖市"},{"address":"北京东路石化宿舍门面88号","location":"112.294979,30.282499","adcode":"421002","adname":"沙市区"},{"address":"北京东路108号","location":"112.294538,30.282736","adcode":"421002","adname":"沙市区"},{"address":"北京东路与红光路交叉口沙隆达石化加油站正对面","location":"112.295989,30.281877","adcode":"421002","adname":"沙市区"},{"address":"北京东路沙隆达宿舍17栋","location":"112.294416,30.282892","adcode":"421002","adname":"沙市区"},{"address":"北京路116号附近","location":"112.294242,30.282955","adcode":"421002","adname":"沙市区"},{"address":"北京路88号附近","location":"112.296265,30.281684","adcode":"421002","adname":"沙市区"},{"address":"北京东路沙隆达幼儿园旁","location":"112.294169,30.283145","adcode":"421002","adname":"沙市区"},{"address":"北京东路沙隆达集团正门对面","location":"112.296364,30.281613","adcode":"421002","adname":"沙市区"},{"address":"北京路108号附近","location":"112.296439,30.281561","adcode":"421002","adname":"沙市区"},{"address":"北京东路沙隆达股份有限公司正对面","location":"112.296441,30.281559","adcode":"421002","adname":"沙市区"},{"address":"胜利街道北京东路沙隆达农药厂对面","location":"112.296461,30.281464","adcode":"421002","adname":"沙市区"},{"address":"北京东路140号","location":"112.294262,30.283332","adcode":"421002","adname":"沙市区"},{"address":"北京路东50米","location":"112.296583,30.281445","adcode":"421002","adname":"沙市区"},{"address":"北京路90附近","location":"112.296981,30.281549","adcode":"421002","adname":"沙市区"},{"address":"北京东路燎原市场","location":"112.293097,30.283653","adcode":"421002","adname":"沙市区"},{"address":"北京东路东印宿舍红光楼10号","location":"112.292907,30.283539","adcode":"421002","adname":"沙市区"},{"address":"东印宿舍红光楼14号","location":"112.292957,30.283588","adcode":"421002","adname":"沙市区"},{"address":"北京东路120号","location":"112.292895,30.283550","adcode":"421002","adname":"沙市区"},{"address":"北京路122号附近","location":"112.292857,30.283585","adcode":"421002","adname":"沙市区"},{"address":"红门路97-1号附近","location":"112.267457,30.320503","adcode":"421002","adname":"沙市区"},{"address":"胜利街道红门路86号","location":"112.267113,30.320732","adcode":"421002","adname":"沙市区"},{"address":"十号路19号美源酒店巷内一百米","location":"112.267014,30.320512","adcode":"421002","adname":"沙市区"},{"address":"红门路127号附近","location":"112.267004,30.320492","adcode":"421002","adname":"沙市区"},{"address":"解放路天阳小区","location":"112.267088,30.320850","adcode":"421002","adname":"沙市区"},{"address":"红门路84-5号附近","location":"112.266938,30.320340","adcode":"421002","adname":"沙市区"},{"address":"红门路82号-附4附近","location":"112.266926,30.320311","adcode":"421002","adname":"沙市区"},{"address":"红门北路86号天阳花苑小区1层11号商铺","location":"112.266936,30.320146","adcode":"421002","adname":"沙市区"},{"address":"红门北路86号","location":"112.266682,30.320699","adcode":"421002","adname":"沙市区"},{"address":"红门路86-2号","location":"112.266838,30.320123","adcode":"421002","adname":"沙市区"},{"address":"红门路93号","location":"112.266879,30.319408","adcode":"421002","adname":"沙市区"},{"address":"红门路88号","location":"112.266096,30.321294","adcode":"421002","adname":"沙市区"},{"address":"长港路66-10号","location":"112.266567,30.319445","adcode":"421002","adname":"沙市区"},{"address":"长港路66-3号","location":"112.266280,30.319206","adcode":"421002","adname":"沙市区"},{"address":"长港路66-5号","location":"112.266368,30.319129","adcode":"421002","adname":"沙市区"},{"address":"长港路64号","location":"112.266854,30.318699","adcode":"421002","adname":"沙市区"},{"address":"章田寺新街街18号","location":"112.209608,29.850764","adcode":"421022","adname":"公安县"},{"address":"新建街与民生路交叉口西150米","location":"112.209448,29.851073","adcode":"421022","adname":"公安县"},{"address":"民生路桥头1号","location":"112.208942,29.850973","adcode":"421022","adname":"公安县"},{"address":"章田寺乡大众路3号","location":"112.208841,29.850955","adcode":"421022","adname":"公安县"},{"address":"章田寺乡民生路51号","location":"112.210619,29.851950","adcode":"421022","adname":"公安县"},{"address":"大众路11附近","location":"112.208610,29.851104","adcode":"421022","adname":"公安县"},{"address":"孟章线与新建街交叉口南200米","location":"112.208900,29.849415","adcode":"421022","adname":"公安县"},{"address":"大庙岗附近","location":"112.208246,29.852118","adcode":"421022","adname":"公安县"},{"address":"孟章线与036县道交汇处西北方向100米处","location":"112.208079,29.852118","adcode":"421022","adname":"公安县"},{"address":"大众路28号","location":"112.207647,29.851303","adcode":"421022","adname":"公安县"},{"address":"新华路与迎宾路交叉口南50米","location":"112.303166,30.161771","adcode":"421024","adname":"江陵县"},{"address":"新华路与迎宾路交叉口东50米","location":"112.303509,30.162150","adcode":"421024","adname":"江陵县"},{"address":"教育路4号附近","location":"112.303617,30.162103","adcode":"421024","adname":"江陵县"},{"address":"滩桥镇中心街27号附近","location":"112.304028,30.161844","adcode":"421024","adname":"江陵县"},{"address":"开发区滩桥镇教育路42号","location":"112.302995,30.160507","adcode":"421024","adname":"江陵县"},{"address":"马家寨乡滩桥镇中心街135号","location":"112.303933,30.162226","adcode":"421024","adname":"江陵县"},{"address":"龙口镇街道十字路25号","location":"113.768934,29.940624","adcode":"421083","adname":"洪湖市"},{"address":"革命路9-4号附近","location":"113.768526,29.940601","adcode":"421083","adname":"洪湖市"},{"address":"龙口镇东风大道8号","location":"113.767837,29.940358","adcode":"421083","adname":"洪湖市"},{"address":"龙口镇政府斜对面","location":"113.767224,29.940022","adcode":"421083","adname":"洪湖市"},{"address":"北环路227号附近","location":"112.165329,30.365726","adcode":"421003","adname":"荆州区"},{"address":"北环路223号附近","location":"112.165420,30.365729","adcode":"421003","adname":"荆州区"},{"address":"西环路284号附近","location":"112.164969,30.365291","adcode":"421003","adname":"荆州区"},{"address":"荆三线与西环路交叉口东南150米","location":"112.165062,30.365185","adcode":"421003","adname":"荆州区"},{"address":"南街工商路与孟家溪镇西街交叉口西南200米","location":"112.093176,29.850775","adcode":"421022","adname":"公安县"},{"address":"孟家溪镇西街与226省道交叉口南200米","location":"112.093597,29.850750","adcode":"421022","adname":"公安县"},{"address":"孟家溪镇西街与226省道交叉口南150米","location":"112.093576,29.850764","adcode":"421022","adname":"公安县"},{"address":"南街工商路与孟家溪镇西街交叉口南150米","location":"112.093570,29.850852","adcode":"421022","adname":"公安县"},{"address":"孟家溪镇西街与226省道交叉口南50米","location":"112.093870,29.851659","adcode":"421022","adname":"公安县"},{"address":"孟家溪镇南街1号","location":"112.093992,29.851769","adcode":"421022","adname":"公安县"},{"address":"孟家溪镇西街与226省道交叉口西南50米","location":"112.093518,29.851940","adcode":"421022","adname":"公安县"},{"address":"孟家溪镇西街与226省道交叉口东南50米","location":"112.094035,29.851884","adcode":"421022","adname":"公安县"},{"address":"孟家溪镇南街97号","location":"112.094158,29.852226","adcode":"421022","adname":"公安县"},{"address":"孟家溪镇西街与226省道交叉口西北50米","location":"112.093645,29.852351","adcode":"421022","adname":"公安县"},{"address":"南街工商路与孟家溪镇西街交叉口东北50米","location":"112.094170,29.852267","adcode":"421022","adname":"公安县"},{"address":"南街工商路与孟家溪镇西街交叉口东北100米","location":"112.094262,29.852482","adcode":"421022","adname":"公安县"},{"address":"南街工商路与孟家溪镇西街交叉口西50米","location":"112.094275,29.852562","adcode":"421022","adname":"公安县"},{"address":"226省道丑丑母婴童旁","location":"112.094288,29.852638","adcode":"421022","adname":"公安县"},{"address":"孟家溪镇西街与226省道交叉口北100米","location":"112.093957,29.852955","adcode":"421022","adname":"公安县"},{"address":"赤卫路182号","location":"113.090802,29.810148","adcode":"421023","adname":"监利县"},{"address":"汴河镇赤卫路188号(汴河镇政府对面)","location":"113.090843,29.810153","adcode":"421023","adname":"监利县"},{"address":"赤卫路188号附近","location":"113.090940,29.810410","adcode":"421023","adname":"监利县"},{"address":"汴河佳乐美超市","location":"113.091133,29.810460","adcode":"421023","adname":"监利县"},{"address":"汴河镇赤卫路191号","location":"113.091568,29.810442","adcode":"421023","adname":"监利县"},{"address":"振兴路60附近","location":"112.240441,30.285639","adcode":"421022","adname":"公安县"},{"address":"振兴路64附近","location":"112.240465,30.285859","adcode":"421022","adname":"公安县"},{"address":"埠河镇振兴路135号","location":"112.240054,30.286310","adcode":"421022","adname":"公安县"},{"address":"埠河镇新建街158号","location":"112.240937,30.286649","adcode":"421022","adname":"公安县"},{"address":"埠河镇振兴路88号","location":"112.240556,30.286714","adcode":"421022","adname":"公安县"},{"address":"振兴路中国移动旁","location":"112.241047,30.286633","adcode":"421022","adname":"公安县"},{"address":"新建街91号","location":"112.241825,30.286207","adcode":"421022","adname":"公安县"},{"address":"振兴路与新建街交叉口西北50米","location":"112.240087,30.286758","adcode":"421022","adname":"公安县"},{"address":"振兴路与新建街交叉口东150米","location":"112.241462,30.286573","adcode":"421022","adname":"公安县"},{"address":"振兴路与新建街交叉口北30米路东(中百仓储正对面)","location":"112.239840,30.286782","adcode":"421022","adname":"公安县"},{"address":"埠河镇振兴路94号(正兴酒店对面)","location":"112.240582,30.286920","adcode":"421022","adname":"公安县"},{"address":"振兴路94号附近","location":"112.240592,30.287009","adcode":"421022","adname":"公安县"},{"address":"埠河镇振兴路102号","location":"112.240595,30.287027","adcode":"421022","adname":"公安县"},{"address":"新建街2-1号附近","location":"112.241599,30.286864","adcode":"421022","adname":"公安县"},{"address":"振兴路143号","location":"112.240271,30.287244","adcode":"421022","adname":"公安县"},{"address":"振兴路与新建街交叉口北150米","location":"112.240209,30.287643","adcode":"421022","adname":"公安县"},{"address":"振兴路与新建街交叉口东100米","location":"112.240674,30.287673","adcode":"421022","adname":"公安县"},{"address":"杨家厂镇政府旁边","location":"112.293177,30.059228","adcode":"421022","adname":"公安县"},{"address":"杨家厂新正街300号","location":"112.292453,30.059703","adcode":"421022","adname":"公安县"},{"address":"杨家厂镇政府斜对面","location":"112.293674,30.059383","adcode":"421022","adname":"公安县"},{"address":"园林路与杨麻线交叉口西50米","location":"112.294404,30.058864","adcode":"421022","adname":"公安县"},{"address":"园林路与杨麻线交叉口南50米","location":"112.294752,30.058756","adcode":"421022","adname":"公安县"},{"address":"园林路与杨麻线交叉口东南50米","location":"112.294915,30.058707","adcode":"421022","adname":"公安县"},{"address":"园林路与杨麻线交叉口东南100米","location":"112.295155,30.058636","adcode":"421022","adname":"公安县"},{"address":"园林路与杨麻线交叉口东南150米","location":"112.295912,30.058409","adcode":"421022","adname":"公安县"},{"address":"杨麻线与集贸路交叉口西50米","location":"112.289774,30.060229","adcode":"421022","adname":"公安县"},{"address":"园林路与杨麻线交叉口东150米","location":"112.296161,30.058751","adcode":"421022","adname":"公安县"},{"address":"章庄铺镇初级中学对面","location":"111.930055,29.887980","adcode":"421022","adname":"公安县"},{"address":"襄东大道北150米","location":"111.930217,29.88883","adcode":"421022","adname":"公安县"},{"address":"襄东大道423号附近","location":"111.930319,29.887966","adcode":"421022","adname":"公安县"},{"address":"襄东大道411号附近","location":"111.930091,29.887463","adcode":"421022","adname":"公安县"},{"address":"襄东大道411号南60米","location":"111.930159,29.887490","adcode":"421022","adname":"公安县"},{"address":"襄东大道383号附近","location":"111.930745,29.888327","adcode":"421022","adname":"公安县"},{"address":"襄东大道324号附近","location":"111.930446,29.887604","adcode":"421022","adname":"公安县"},{"address":"襄东大道411号","location":"111.930565,29.887650","adcode":"421022","adname":"公安县"},{"address":"章庄铺镇襄东大道309号","location":"111.931136,29.888100","adcode":"421022","adname":"公安县"},{"address":"关沮镇中小企业城西北(318国道西)","location":"112.293711,30.355526","adcode":"421002","adname":"沙市区"},{"address":"沙市318国道与十号路交汇处","location":"112.291659,30.355887","adcode":"421002","adname":"沙市区"},{"address":"福星大道与318国道交叉口西北50米","location":"112.292984,30.354298","adcode":"421002","adname":"沙市区"},{"address":"福星大道与318国道交叉口西50米","location":"112.292926,30.354132","adcode":"421002","adname":"沙市区"},{"address":"福星大道与318国道交叉口西南50米","location":"112.292898,30.354062","adcode":"421002","adname":"沙市区"},{"address":"关沮镇318国道银湖时代对面","location":"112.292757,30.353806","adcode":"421002","adname":"沙市区"},{"address":"318国道银湖时代底商","location":"112.292728,30.353758","adcode":"421002","adname":"沙市区"},{"address":"10号路银湖工业园","location":"112.293942,30.353659","adcode":"421002","adname":"沙市区"},{"address":"福星大道与318国道交叉口西南100米","location":"112.292769,30.353673","adcode":"421002","adname":"沙市区"},{"address":"城南开发区四机路99号","location":"112.168812,30.345476","adcode":"421003","adname":"荆州区"},{"address":"四机路101附近","location":"112.168836,30.345467","adcode":"421003","adname":"荆州区"},{"address":"四机厂四机路89号天天超市旁","location":"112.169211,30.345324","adcode":"421003","adname":"荆州区"},{"address":"四机路87号","location":"112.169214,30.345323","adcode":"421003","adname":"荆州区"},{"address":"四机路89号附近","location":"112.169278,30.345426","adcode":"421003","adname":"荆州区"},{"address":"四机路115号","location":"112.169305,30.345380","adcode":"421003","adname":"荆州区"},{"address":"四机路85号","location":"112.169352,30.345271","adcode":"421003","adname":"荆州区"},{"address":"四机路83号","location":"112.169802,30.345098","adcode":"421003","adname":"荆州区"},{"address":"演武路137号附近","location":"112.169887,30.345066","adcode":"421003","adname":"荆州区"},{"address":"八宝镇大桥村七组12号","location":"111.802830,30.196075","adcode":"421087","adname":"松滋市"},{"address":"永兴大道与金松大道交叉口东100米","location":"111.795660,30.194182","adcode":"421087","adname":"松滋市"},{"address":"永兴大道1号附近","location":"111.795665,30.192318","adcode":"421087","adname":"松滋市"},{"address":"永兴大道与金松大道交叉口北100米","location":"111.794519,30.193636","adcode":"421087","adname":"松滋市"},{"address":"新建街163号","location":"112.017216,29.982343","adcode":"421022","adname":"公安县"},{"address":"新建街狮子口工商局","location":"112.016599,29.982722","adcode":"421022","adname":"公安县"},{"address":"新建街与汪杨线交叉口东南150米","location":"112.016991,29.982140","adcode":"421022","adname":"公安县"},{"address":"新建街与汪杨线交叉口西北50米","location":"112.015918,29.983105","adcode":"421022","adname":"公安县"},{"address":"狮子口镇新建街186号","location":"112.015662,29.983154","adcode":"421022","adname":"公安县"},{"address":"狮子口镇新建街190号","location":"112.015585,29.983288","adcode":"421022","adname":"公安县"},{"address":"新建街天天超市内","location":"112.017753,29.981514","adcode":"421022","adname":"公安县"},{"address":"狮河路5号附近","location":"112.012687,29.981792","adcode":"421022","adname":"公安县"},{"address":"G55二广高速北50米","location":"112.055731,29.990122","adcode":"421022","adname":"公安县"},{"address":[],"location":"112.012130,30.050694","adcode":"421022","adname":"公安县"},{"address":[],"location":"112.902420,29.849194","adcode":"421023","adname":"监利县"},{"address":"商贸博览城一街2栋201","location":"112.901018,29.848297","adcode":"421023","adname":"监利县"},{"address":"红城乡百晟首府一楼","location":"112.902388,29.847069","adcode":"421023","adname":"监利县"},{"address":"江城路百晟首府4-110商铺","location":"112.902829,29.847072","adcode":"421023","adname":"监利县"},{"address":"江城路百晟首府3-106号","location":"112.903396,29.847077","adcode":"421023","adname":"监利县"},{"address":"红城乡百晟首府4-115号","location":"112.903240,29.846899","adcode":"421023","adname":"监利县"},{"address":"北环大道南50米","location":"112.903836,29.847081","adcode":"421023","adname":"监利县"},{"address":"北环大道与江城路交叉口西150米","location":"112.904168,29.847083","adcode":"421023","adname":"监利县"},{"address":"红城乡百晟首府1栋103号","location":"112.904353,29.847084","adcode":"421023","adname":"监利县"},{"address":"北环大道","location":"112.904630,29.847087","adcode":"421023","adname":"监利县"},{"address":"江城路百晟首府SQ-1-111号商铺","location":"112.904943,29.847089","adcode":"421023","adname":"监利县"},{"address":"红城乡百晟首府5","location":"112.905203,29.847091","adcode":"421023","adname":"监利县"},{"address":"容城镇五洲国际商贸城2号楼A区2幢233-237","location":"112.905650,29.848072","adcode":"421023","adname":"监利县"},{"address":"关羽路与花新线交叉口西50米","location":"112.110060,30.397892","adcode":"421003","adname":"荆州区"},{"address":"关羽路与花新线交叉口北150米","location":"112.110423,30.398857","adcode":"421003","adname":"荆州区"},{"address":"八岭山镇杨场街19号","location":"112.110514,30.397190","adcode":"421003","adname":"荆州区"},{"address":"杨场街70号附近","location":"112.110423,30.398858","adcode":"421003","adname":"荆州区"},{"address":"利民街与花新线交叉口西南100米","location":"112.110453,30.398987","adcode":"421003","adname":"荆州区"},{"address":"关羽路43号附近","location":"112.109190,30.398280","adcode":"421003","adname":"荆州区"},{"address":"陈店镇观岳集镇89号","location":"111.690330,30.229046","adcode":"421087","adname":"松滋市"},{"address":"夹马槽村7组52号国香米业公司东邻","location":"111.689293,30.229802","adcode":"421087","adname":"松滋市"},{"address":"254省道西200米","location":"111.666600,30.240458","adcode":"421087","adname":"松滋市"},{"address":[],"location":"111.659536,30.244900","adcode":"421087","adname":"松滋市"},{"address":[],"location":"111.689000,30.186515","adcode":"421087","adname":"松滋市"},{"address":"南街94附近","location":"111.655603,30.263289","adcode":"421087","adname":"松滋市"},{"address":"322省道东50米","location":"111.918199,30.168683","adcode":"421087","adname":"松滋市"},{"address":"八宝镇龟咀村八组","location":"111.928880,30.165722","adcode":"421087","adname":"松滋市"},{"address":"堤街与322省道交叉口南50米","location":"111.930650,30.167796","adcode":"421087","adname":"松滋市"},{"address":"大桥路与建设街交叉口西50米","location":"111.930776,30.168301","adcode":"421087","adname":"松滋市"},{"address":"沙道观镇四中路121号","location":"111.931028,30.169627","adcode":"421087","adname":"松滋市"},{"address":"沙道观镇四中路125号","location":"111.931071,30.169260","adcode":"421087","adname":"松滋市"},{"address":"四中路与大桥路交叉口西50米","location":"111.931220,30.168827","adcode":"421087","adname":"松滋市"},{"address":"开发区红光路综合大楼一楼","location":"112.292823,30.283700","adcode":"421002","adname":"沙市区"},{"address":"北京东路东印宿舍红光楼19号","location":"112.292751,30.283759","adcode":"421002","adname":"沙市区"},{"address":"东印宿舍红光路红光楼14号","location":"112.292728,30.283952","adcode":"421002","adname":"沙市区"},{"address":"北京东路红光楼门面19号","location":"112.292728,30.283952","adcode":"421002","adname":"沙市区"},{"address":"北京东路126号","location":"112.292390,30.284013","adcode":"421002","adname":"沙市区"},{"address":"北京东路142号东印宿舍7栋4楼","location":"112.292220,30.284171","adcode":"421002","adname":"沙市区"},{"address":"北京东路144号红光楼社区附近","location":"112.291976,30.284380","adcode":"421002","adname":"沙市区"},{"address":"北京路与红光路交叉口东北150米","location":"112.293945,30.284255","adcode":"421002","adname":"沙市区"},{"address":"北京东路128号","location":"112.291888,30.284603","adcode":"421002","adname":"沙市区"},{"address":"开发区北京东路东印14栋黄家塘(望江国际对面)","location":"112.291771,30.284579","adcode":"421002","adname":"沙市区"}],"alerms":["0","1","2","3","4","5","6","7","0","1","2","3","4","5","6","7","0","1","2","3","4","5","6","7","0","1","2","3","4","5","6","7","0","1","2","3","4","5","6","7"],"vechileInfo":[{"label":"鄂DF7G63","adcode":"421002","adname":"沙市区","location":"112.292957,30.283588","address":"东印宿舍红光楼14号","state":1,"speed":0,"icon":"icon-alerm"},{"label":"鄂DTO7L6","adcode":"421022","adname":"公安县","location":"112.208900,29.849415","address":"孟章线与新建街交叉口南200米","state":1,"speed":0,"icon":"icon-alerm"},{"label":"鄂DFVP6O","adcode":"421003","adname":"荆州区","location":"112.165200,30.366048","address":"北环路452号附近","state":3,"speed":4,"icon":"icon-stop"},{"label":"鄂D9R3NA","adcode":"421087","adname":"松滋市","location":"111.715408,30.211442","address":"254省道东50米","state":1,"speed":0,"icon":"icon-alerm"},{"label":"鄂DRK1AP","adcode":"421022","adname":"公安县","location":"111.930319,29.887966","address":"襄东大道423号附近","state":1,"speed":0,"icon":"icon-alerm"},{"label":"鄂DV4NYF","adcode":"421002","adname":"沙市区","location":"112.268750,30.324061","address":"立新乡红门路桥北30米第二电缆厂","state":4,"speed":71,"icon":"icon-drive"},{"label":"鄂DUAAOR","adcode":"421083","adname":"洪湖市","location":"113.604501,29.909673","address":"103省道乌林派出所西北200米","state":0,"speed":0,"icon":"icon-gray"},{"label":"鄂DV59LK","adcode":"421022","adname":"公安县","location":"112.210815,29.851280","address":"民主路与民生路交叉口西南50米","state":3,"speed":3,"icon":"icon-stop"},{"label":"鄂DL6RI8","adcode":"421087","adname":"松滋市","location":"111.802830,30.196075","address":"八宝镇大桥村七组12号","state":3,"speed":6,"icon":"icon-stop"},{"label":"鄂DBFIOS","adcode":"421022","adname":"公安县","location":"112.234296,30.288133","address":"荆江路196号","state":1,"speed":0,"icon":"icon-alerm"},{"label":"鄂D186M1","adcode":"421083","adname":"洪湖市","location":"113.769398,29.939258","address":"龙口中学对面","state":4,"speed":73,"icon":"icon-drive"},{"label":"鄂DJUOFB","adcode":"421022","adname":"公安县","location":"112.012687,29.981792","address":"狮河路5号附近","state":3,"speed":3,"icon":"icon-stop"},{"label":"鄂DQ1QUX","adcode":"421022","adname":"公安县","location":"112.287752,30.061252","address":"杨家厂镇新正街440号","state":3,"speed":3,"icon":"icon-stop"},{"label":"鄂D52ZCN","adcode":"421087","adname":"松滋市","location":"111.733959,30.186895","address":[],"state":3,"speed":6,"icon":"icon-stop"},{"label":"鄂D0VQSV","adcode":"421003","adname":"荆州区","location":"112.164091,30.366585","address":"荆三线与西环路交叉口北100米","state":3,"speed":1,"icon":"icon-stop"},{"label":"鄂DXND02","adcode":"421022","adname":"公安县","location":"112.014810,30.051862","address":"斑竹垱镇育才街3号","state":3,"speed":4,"icon":"icon-stop"},{"label":"鄂D04P0O","adcode":"421002","adname":"沙市区","location":"112.292220,30.284171","address":"北京东路142号东印宿舍7栋4楼","state":1,"speed":0,"icon":"icon-alerm"},{"label":"鄂DZAULN","adcode":"421022","adname":"公安县","location":"111.928895,29.887533","address":"襄东大道358号附近","state":3,"speed":1,"icon":"icon-stop"},{"label":"鄂DE1EHA","adcode":"421022","adname":"公安县","location":"112.288696,30.060969","address":"建设路与杨麻线交叉口西北50米","state":2,"speed":1,"icon":"icon-stop"},{"label":"鄂DTK1CS","adcode":"421022","adname":"公安县","location":"112.232062,30.288003","address":"窖金路3号","state":1,"speed":0,"icon":"icon-alerm"},{"label":"鄂DI6R18","adcode":"421023","adname":"监利县","location":"113.086354,29.810792","address":"汴河镇","state":4,"speed":42,"icon":"icon-drive"},{"label":"鄂D18ELU","adcode":"421022","adname":"公安县","location":"112.225489,30.286690","address":"荆江路西100米","state":1,"speed":0,"icon":"icon-alerm"},{"label":"鄂DXWYYF","adcode":"421002","adname":"沙市区","location":"112.267489,30.320593","address":"红门路97号","state":1,"speed":0,"icon":"icon-alerm"},{"label":"鄂D7Q1XE","adcode":"421023","adname":"监利县","location":"112.920426,29.865761","address":[],"state":3,"speed":1,"icon":"icon-stop"},{"label":"鄂DWUFJK","adcode":"421003","adname":"荆州区","location":"112.164091,30.366585","address":"荆三线与西环路交叉口北100米","state":0,"speed":0,"icon":"icon-gray"},{"label":"鄂D3SAWD","adcode":"421022","adname":"公安县","location":"112.225084,30.285065","address":"埠河镇荆江路变电站旁","state":1,"speed":0,"icon":"icon-alerm"},{"label":"鄂DZKIQJ","adcode":"421002","adname":"沙市区","location":"112.266879,30.319408","address":"红门路93号","state":3,"speed":3,"icon":"icon-stop"},{"label":"鄂DHVPFE","adcode":"421022","adname":"公安县","location":"112.212350,29.850936","address":"章田寺乡新建街87号","state":2,"speed":4,"icon":"icon-stop"},{"label":"鄂DM0OI2","adcode":"421002","adname":"沙市区","location":"112.329538,30.356883","address":"桂鱼路与318国道交叉口西150米","state":3,"speed":8,"icon":"icon-stop"},{"label":"鄂DVM6QG","adcode":"421022","adname":"公安县","location":"112.229995,30.287195","address":"观音当镇荆江路315号","state":2,"speed":0,"icon":"icon-stop"},{"label":"鄂D7OKGT","adcode":"421022","adname":"公安县","location":"111.917862,29.883481","address":"襄东大道庄盛肥业公司东侧100米","state":3,"speed":8,"icon":"icon-stop"},{"label":"鄂DRZ8JE","adcode":"421002","adname":"沙市区","location":"112.293097,30.283653","address":"北京东路燎原市场","state":1,"speed":0,"icon":"icon-alerm"},{"label":"鄂DFWPPK","adcode":"421022","adname":"公安县","location":"112.294752,30.058756","address":"园林路与杨麻线交叉口南50米","state":2,"speed":1,"icon":"icon-stop"},{"label":"鄂DD60ZZ","adcode":"421087","adname":"松滋市","location":"111.928324,30.165220","address":"中渡口村96号","state":2,"speed":3,"icon":"icon-stop"},{"label":"鄂DCTMUA","adcode":"421023","adname":"监利县","location":"112.903396,29.847077","address":"江城路百晟首府3-106号","state":0,"speed":0,"icon":"icon-gray"},{"label":"鄂DYKIMC","adcode":"421022","adname":"公安县","location":"112.094288,29.852638","address":"226省道丑丑母婴童旁","state":2,"speed":5,"icon":"icon-stop"},{"label":"鄂D6NZHA","adcode":"421083","adname":"洪湖市","location":"113.606522,29.909124","address":"乌林大市场","state":3,"speed":7,"icon":"icon-stop"},{"label":"鄂D7J9L4","adcode":"421022","adname":"公安县","location":"112.094158,29.852226","address":"孟家溪镇南街97号","state":1,"speed":0,"icon":"icon-alerm"},{"label":"鄂D2OCSN","adcode":"421023","adname":"监利县","location":"113.090197,29.809975","address":"汴河镇赤卫路98号","state":0,"speed":0,"icon":"icon-gray"},{"label":"鄂DSYP8Z","adcode":"421003","adname":"荆州区","location":"112.110724,30.398117","address":"关羽路与花新线交叉口北50米","state":2,"speed":5,"icon":"icon-stop"},{"label":"鄂D6WLAL","adcode":"421022","adname":"公安县","location":"112.233332,30.287602","address":"埠河镇荆江大道朱胖子酒楼旁","state":2,"speed":3,"icon":"icon-stop"},{"label":"鄂DHWU9P","adcode":"421022","adname":"公安县","location":"112.212701,29.850805","address":"新建街与朝阳路交叉口西50米","state":2,"speed":2,"icon":"icon-stop"},{"label":"鄂DMGHJX","adcode":"421002","adname":"沙市区","location":"112.293097,30.283653","address":"北京东路燎原市场","state":2,"speed":1,"icon":"icon-stop"},{"label":"鄂DYLY1D","adcode":"421024","adname":"江陵县","location":"112.302835,30.162600","address":"新华路与迎宾路交叉口西北100米","state":2,"speed":4,"icon":"icon-stop"},{"label":"鄂DD1BJ4","adcode":"421002","adname":"沙市区","location":"112.266926,30.320311","address":"红门路82号-附4附近","state":1,"speed":0,"icon":"icon-alerm"},{"label":"鄂DF64OW","adcode":"421083","adname":"洪湖市","location":"113.769398,29.939258","address":"龙口中学对面","state":0,"speed":0,"icon":"icon-gray"},{"label":"鄂DPWSBY","adcode":"421022","adname":"公安县","location":"112.213359,29.849968","address":"朝阳路5号","state":2,"speed":5,"icon":"icon-stop"},{"label":"鄂D059K8","adcode":"421022","adname":"公安县","location":"112.015133,30.052798","address":"斑竹垱镇中心街183号","state":4,"speed":113,"icon":"icon-drive"},{"label":"鄂DVWG9E","adcode":"421003","adname":"荆州区","location":"112.167478,30.346127","address":"四机路121号附近","state":4,"speed":112,"icon":"icon-drive"},{"label":"鄂DOFETD","adcode":"421003","adname":"荆州区","location":"112.169352,30.345271","address":"四机路85号","state":1,"speed":0,"icon":"icon-alerm"},{"label":"鄂DI6GMT","adcode":"421003","adname":"荆州区","location":"112.167671,30.345974","address":"四机路119号","state":0,"speed":0,"icon":"icon-gray"},{"label":"鄂D4KIVF","adcode":"421022","adname":"公安县","location":"112.240556,30.286714","address":"埠河镇振兴路88号","state":0,"speed":0,"icon":"icon-gray"},{"label":"鄂DRIH1F","adcode":"421002","adname":"沙市区","location":"112.292728,30.283952","address":"北京东路红光楼门面19号","state":0,"speed":0,"icon":"icon-gray"},{"label":"鄂DVMXM2","adcode":"421022","adname":"公安县","location":"112.015417,30.052492","address":"中心街巴黎婚纱摄影旁","state":0,"speed":0,"icon":"icon-gray"},{"label":"鄂DK0SF2","adcode":"421083","adname":"洪湖市","location":"113.607765,29.907638","address":"103省道西150米","state":2,"speed":4,"icon":"icon-stop"},{"label":"鄂DBLM9I","adcode":"421087","adname":"松滋市","location":"111.917329,30.168857","address":"322省道西50米","state":2,"speed":2,"icon":"icon-stop"},{"label":"鄂D2C89Z","adcode":"421087","adname":"松滋市","location":"111.749034,30.196475","address":"254省道西50米","state":1,"speed":0,"icon":"icon-alerm"},{"label":"鄂DWZ81E","adcode":"421022","adname":"公安县","location":"111.930319,29.887966","address":"襄东大道423号附近","state":4,"speed":48,"icon":"icon-drive"},{"label":"鄂DISCE5","adcode":"421003","adname":"荆州区","location":"112.110881,30.399358","address":"杨场街62号","state":3,"speed":2,"icon":"icon-stop"},{"label":"鄂DKQY6N","adcode":"421022","adname":"公安县","location":"112.014616,30.051479","address":"斑竹档镇育才路四十六号","state":3,"speed":7,"icon":"icon-stop"},{"label":"鄂DF02QB","adcode":"421087","adname":"松滋市","location":"111.931028,30.169627","address":"沙道观镇四中路121号","state":3,"speed":7,"icon":"icon-stop"},{"label":"鄂DTJ9GZ","adcode":"421002","adname":"沙市区","location":"112.327219,30.357064","address":"锣场镇向湖村四组55","state":3,"speed":9,"icon":"icon-stop"},{"label":"鄂DQDH7U","adcode":"421003","adname":"荆州区","location":"112.164414,30.366045","address":"北环路与荆三线交叉口东北50米","state":1,"speed":0,"icon":"icon-alerm"},{"label":"鄂DXZWGG","adcode":"421083","adname":"洪湖市","location":"113.769511,29.937417","address":"龙口镇新新路45号","state":3,"speed":9,"icon":"icon-stop"},{"label":"鄂D5CONF","adcode":"421022","adname":"公安县","location":"112.286008,30.061804","address":"杨麻线与移民路交叉口北50米","state":0,"speed":0,"icon":"icon-gray"},{"label":"鄂DQ4TFB","adcode":"421003","adname":"荆州区","location":"112.110423,30.398858","address":"杨场街70号附近","state":3,"speed":6,"icon":"icon-stop"},{"label":"鄂DNM2NG","adcode":"421003","adname":"荆州区","location":"112.164091,30.366585","address":"荆三线与西环路交叉口北100米","state":2,"speed":2,"icon":"icon-stop"},{"label":"鄂DTBY6O","adcode":"421087","adname":"松滋市","location":"111.795665,30.192318","address":"永兴大道1号附近","state":3,"speed":2,"icon":"icon-stop"},{"label":"鄂DPCY6E","adcode":"421083","adname":"洪湖市","location":"113.602968,29.911671","address":"乌林镇","state":1,"speed":0,"icon":"icon-alerm"},{"label":"鄂DW6HML","adcode":"421002","adname":"沙市区","location":"112.266879,30.319408","address":"红门路93号","state":1,"speed":0,"icon":"icon-alerm"},{"label":"鄂DUVPXC","adcode":"421087","adname":"松滋市","location":"111.804189,30.196989","address":"金松大道北50米","state":3,"speed":8,"icon":"icon-stop"},{"label":"鄂D8ANRT","adcode":"421024","adname":"江陵县","location":"112.303509,30.162150","address":"新华路与迎宾路交叉口东50米","state":2,"speed":4,"icon":"icon-stop"},{"label":"鄂DAIDZM","adcode":"421024","adname":"江陵县","location":"112.303617,30.162103","address":"教育路4号附近","state":2,"speed":3,"icon":"icon-stop"},{"label":"鄂D1R2JM","adcode":"421022","adname":"公安县","location":"112.023890,29.826538","address":"汪郑线东50米","state":3,"speed":6,"icon":"icon-stop"},{"label":"鄂DSJRSB","adcode":"421003","adname":"荆州区","location":"112.111902,30.398865","address":"花新线与龙山街交叉口南150米路西","state":1,"speed":0,"icon":"icon-alerm"},{"label":"鄂DC5DI0","adcode":"421003","adname":"荆州区","location":"112.168438,30.345628","address":"四机路与白龙五路交叉口东南50米","state":2,"speed":0,"icon":"icon-stop"},{"label":"鄂DPK17X","adcode":"421087","adname":"松滋市","location":"111.722357,30.178600","address":"S332西流村","state":2,"speed":2,"icon":"icon-stop"},{"label":"鄂DYQKGW","adcode":"421002","adname":"沙市区","location":"112.291888,30.284603","address":"北京东路128号","state":0,"speed":0,"icon":"icon-gray"},{"label":"鄂DG72Q8","adcode":"421083","adname":"洪湖市","location":"113.602971,29.911753","address":"乌林镇黄蓬大道松林特1号","state":2,"speed":2,"icon":"icon-stop"},{"label":"鄂DQCJV9","adcode":"421023","adname":"监利县","location":"113.091133,29.810460","address":"汴河佳乐美超市","state":1,"speed":0,"icon":"icon-alerm"},{"label":"鄂DI9GO3","adcode":"421087","adname":"松滋市","location":"111.926692,30.165090","address":"龟咀村8组71号","state":3,"speed":9,"icon":"icon-stop"},{"label":"鄂DXURN9","adcode":"421087","adname":"松滋市","location":"111.802830,30.196075","address":"八宝镇大桥村七组12号","state":3,"speed":8,"icon":"icon-stop"},{"label":"鄂DLEGHQ","adcode":"421003","adname":"荆州区","location":"112.167763,30.345937","address":"四机路107号","state":0,"speed":0,"icon":"icon-gray"},{"label":"鄂DPHTW0","adcode":"421002","adname":"沙市区","location":"112.267896,30.321383","address":"红门路101号1","state":1,"speed":0,"icon":"icon-alerm"},{"label":"鄂DG8E3J","adcode":"421022","adname":"公安县","location":"112.208841,29.850955","address":"章田寺乡大众路3号","state":3,"speed":10,"icon":"icon-stop"},{"label":"鄂DSVCF1","adcode":"421003","adname":"荆州区","location":"112.111500,30.399730","address":"连郢路76号","state":1,"speed":0,"icon":"icon-alerm"},{"label":"鄂DJJZIL","adcode":"421022","adname":"公安县","location":"112.015585,29.983288","address":"狮子口镇新建街190号","state":1,"speed":0,"icon":"icon-alerm"},{"label":"鄂D72O6Y","adcode":"421023","adname":"监利县","location":"112.906670,29.849361","address":"北环大道北150米","state":2,"speed":3,"icon":"icon-stop"},{"label":"鄂D5S9HX","adcode":"421022","adname":"公安县","location":"112.093123,29.849391","address":"226省道东50米","state":1,"speed":0,"icon":"icon-alerm"},{"label":"鄂D0RZG0","adcode":"421022","adname":"公安县","location":"112.290669,30.060385","address":"杨麻线与集贸路交叉口东50米","state":2,"speed":1,"icon":"icon-stop"},{"label":"鄂DHPH8A","adcode":"421083","adname":"洪湖市","location":"113.771417,29.935209","address":"中山路好公道超市旁","state":4,"speed":62,"icon":"icon-drive"},{"label":"鄂DKATJ1","adcode":"421002","adname":"沙市区","location":"112.292823,30.283700","address":"开发区红光路综合大楼一楼","state":4,"speed":80,"icon":"icon-drive"},{"label":"鄂D995M4","adcode":"421002","adname":"沙市区","location":"112.268750,30.324061","address":"立新乡红门路桥北30米第二电缆厂","state":3,"speed":3,"icon":"icon-stop"},{"label":"鄂DYT415","adcode":"421023","adname":"监利县","location":"112.904353,29.847084","address":"红城乡百晟首府1栋103号","state":2,"speed":3,"icon":"icon-stop"},{"label":"鄂DV1UHX","adcode":"421083","adname":"洪湖市","location":"113.769398,29.939258","address":"龙口中学对面","state":0,"speed":0,"icon":"icon-gray"},{"label":"鄂DRZXDI","adcode":"421002","adname":"沙市区","location":"112.296981,30.281549","address":"北京路90附近","state":2,"speed":1,"icon":"icon-stop"},{"label":"鄂DN5Q84","adcode":"421023","adname":"监利县","location":"113.089736,29.810084","address":"赤卫路139号附近","state":3,"speed":5,"icon":"icon-stop"},{"label":"鄂DGNKUS","adcode":"421002","adname":"沙市区","location":"112.294538,30.282736","address":"北京东路108号","state":3,"speed":9,"icon":"icon-stop"},{"label":"鄂DKGGQR","adcode":"421083","adname":"洪湖市","location":"113.602971,29.911753","address":"乌林镇黄蓬大道松林特1号","state":1,"speed":0,"icon":"icon-alerm"},{"label":"鄂DA6YGX","adcode":"421022","adname":"公安县","location":"112.240556,30.286714","address":"埠河镇振兴路88号","state":1,"speed":0,"icon":"icon-alerm"},{"label":"鄂DX7LUA","adcode":"421023","adname":"监利县","location":"113.089714,29.810094","address":"赤卫路140附近","state":2,"speed":2,"icon":"icon-stop"},{"label":"鄂DXQBUD","adcode":"421083","adname":"洪湖市","location":"113.770944,29.940901","address":"龙口镇蔬菜东风大道卧龙·金华庭","state":2,"speed":1,"icon":"icon-stop"},{"label":"鄂DEW6AG","adcode":"421023","adname":"监利县","location":"113.089714,29.810094","address":"赤卫路140附近","state":1,"speed":0,"icon":"icon-alerm"},{"label":"鄂DU3VVI","adcode":"421002","adname":"沙市区","location":"112.269359,30.324858","address":"十号路6号","state":1,"speed":0,"icon":"icon-alerm"},{"label":"鄂DKNF5Y","adcode":"421022","adname":"公安县","location":"112.014327,30.041706","address":"斑竹垱镇永丰村民委员会东南侧210米","state":0,"speed":0,"icon":"icon-gray"},{"label":"鄂DXTQ26","adcode":"421083","adname":"洪湖市","location":"113.768526,29.940601","address":"革命路9-4号附近","state":2,"speed":4,"icon":"icon-stop"},{"label":"鄂DFU7NA","adcode":"421023","adname":"监利县","location":"112.902829,29.847072","address":"江城路百晟首府4-110商铺","state":2,"speed":3,"icon":"icon-stop"},{"label":"鄂D9APDA","adcode":"421023","adname":"监利县","location":"113.089714,29.810094","address":"赤卫路140附近","state":1,"speed":0,"icon":"icon-alerm"},{"label":"鄂DSPIRI","adcode":"421022","adname":"公安县","location":"112.093176,29.850775","address":"南街工商路与孟家溪镇西街交叉口西南200米","state":3,"speed":4,"icon":"icon-stop"},{"label":"鄂D12BHW","adcode":"421023","adname":"监利县","location":"112.903836,29.847081","address":"北环大道南50米","state":1,"speed":0,"icon":"icon-alerm"},{"label":"鄂DD9DLF","adcode":"421022","adname":"公安县","location":"112.016599,29.982722","address":"新建街狮子口工商局","state":3,"speed":5,"icon":"icon-stop"},{"label":"鄂D7WPRG","adcode":"421024","adname":"江陵县","location":"112.302835,30.162600","address":"新华路与迎宾路交叉口西北100米","state":1,"speed":0,"icon":"icon-alerm"},{"label":"鄂D9MW5G","adcode":"421022","adname":"公安县","location":"111.919338,29.884466","address":"章庄铺镇襄东大道脉气弯加油站西50米","state":1,"speed":0,"icon":"icon-alerm"},{"label":"鄂DGHOP4","adcode":"421022","adname":"公安县","location":"112.208079,29.852118","address":"孟章线与036县道交汇处西北方向100米处","state":1,"speed":0,"icon":"icon-alerm"},{"label":"鄂DM4FY5","adcode":"421003","adname":"荆州区","location":"112.110453,30.398987","address":"利民街与花新线交叉口西南100米","state":0,"speed":0,"icon":"icon-gray"},{"label":"鄂D18PMK","adcode":"421083","adname":"洪湖市","location":"113.608937,29.907573","address":"103省道附近(乌林派出所东)","state":3,"speed":9,"icon":"icon-stop"},{"label":"鄂D0H14Z","adcode":"421022","adname":"公安县","location":"112.233325,30.287602","address":"埠河镇荆江路264号","state":3,"speed":7,"icon":"icon-stop"},{"label":"鄂DCY5TB","adcode":"421022","adname":"公安县","location":"111.930217,29.88883","address":"襄东大道北150米","state":1,"speed":0,"icon":"icon-alerm"},{"label":"鄂DYZROD","adcode":"421022","adname":"公安县","location":"112.015407,29.983609","address":"狮子口镇狮子口镇新建街200号","state":3,"speed":6,"icon":"icon-stop"},{"label":"鄂D85S83","adcode":"421022","adname":"公安县","location":"112.025762,29.832832","address":[],"state":2,"speed":1,"icon":"icon-stop"},{"label":"鄂D2HGOI","adcode":"421002","adname":"沙市区","location":"112.270121,30.326419","address":"十号路19号东北50米","state":1,"speed":0,"icon":"icon-alerm"},{"label":"鄂DQ534D","adcode":"421083","adname":"洪湖市","location":"113.608937,29.907573","address":"103省道附近(乌林派出所东)","state":0,"speed":0,"icon":"icon-gray"},{"label":"鄂DTEYN5","adcode":"421022","adname":"公安县","location":"112.093518,29.851940","address":"孟家溪镇西街与226省道交叉口西南50米","state":4,"speed":77,"icon":"icon-drive"},{"label":"鄂D77QTA","adcode":"421083","adname":"洪湖市","location":"113.769505,29.940312","address":"振兴路与329省道交叉口东50米","state":1,"speed":0,"icon":"icon-alerm"},{"label":"鄂D4APGA","adcode":"421087","adname":"松滋市","location":"111.899854,30.103076","address":"054县道东50米","state":1,"speed":0,"icon":"icon-alerm"},{"label":"鄂D3551J","adcode":"421083","adname":"洪湖市","location":"113.769398,29.939258","address":"龙口中学对面","state":1,"speed":0,"icon":"icon-alerm"},{"label":"鄂D6QCGT","adcode":"421022","adname":"公安县","location":"111.930217,29.88883","address":"襄东大道北150米","state":0,"speed":0,"icon":"icon-gray"},{"label":"鄂DP145N","adcode":"421022","adname":"公安县","location":"112.024601,29.822777","address":"郑公镇西街55号","state":2,"speed":1,"icon":"icon-stop"},{"label":"鄂DKDXPD","adcode":"421022","adname":"公安县","location":"112.022746,29.823137","address":"南街与汪郑线交叉口西200米","state":1,"speed":0,"icon":"icon-alerm"},{"label":"鄂DUXTYB","adcode":"421087","adname":"松滋市","location":"111.748603,30.196030","address":"新江口镇德胜垸村6组","state":3,"speed":7,"icon":"icon-stop"},{"label":"鄂D6DB15","adcode":"421022","adname":"公安县","location":"112.290867,30.060328","address":"杨麻线与集贸路交叉口东100米","state":4,"speed":46,"icon":"icon-drive"},{"label":"鄂DANSI7","adcode":"421023","adname":"监利县","location":"113.078160,29.809641","address":"汴河镇赤卫路东边墩路段,赤卫初中附近","state":2,"speed":5,"icon":"icon-stop"},{"label":"鄂DHRG2I","adcode":"421022","adname":"公安县","location":"112.295912,30.058409","address":"园林路与杨麻线交叉口东南150米","state":3,"speed":5,"icon":"icon-stop"},{"label":"鄂D1VO4J","adcode":"421022","adname":"公安县","location":"112.292034,30.059978","address":"杨麻线北50米","state":1,"speed":0,"icon":"icon-alerm"},{"label":"鄂DYCJKL","adcode":"421022","adname":"公安县","location":"112.014616,30.051479","address":"斑竹档镇育才路四十六号","state":4,"speed":112,"icon":"icon-drive"},{"label":"鄂D7POQF","adcode":"421022","adname":"公安县","location":"112.206071,29.839878","address":"章田寺乡南阳村村部","state":1,"speed":0,"icon":"icon-alerm"},{"label":"鄂D1XBYV","adcode":"421002","adname":"沙市区","location":"112.295989,30.281877","address":"北京东路与红光路交叉口沙隆达石化加油站正对面","state":2,"speed":5,"icon":"icon-stop"},{"label":"鄂D4V9WY","adcode":"421022","adname":"公安县","location":"112.240087,30.286758","address":"振兴路与新建街交叉口西北50米","state":3,"speed":5,"icon":"icon-stop"},{"label":"鄂DVGLLF","adcode":"421003","adname":"荆州区","location":"112.112421,30.399349","address":"花新线与龙山街交叉口南50米","state":3,"speed":1,"icon":"icon-stop"},{"label":"鄂DMHK6B","adcode":"421002","adname":"沙市区","location":"112.307199,30.364873","address":"关沮四组花木市场旁","state":2,"speed":2,"icon":"icon-stop"},{"label":"鄂DPCPFS","adcode":"421022","adname":"公安县","location":"111.918959,29.883837","address":"襄东大道564附近","state":2,"speed":1,"icon":"icon-stop"},{"label":"鄂DW3LLF","adcode":"421087","adname":"松滋市","location":"111.814412,30.201162","address":"福润多购物广场南(322省道南)","state":0,"speed":0,"icon":"icon-gray"},{"label":"鄂DZMSO8","adcode":"421003","adname":"荆州区","location":"112.167373,30.346031","address":"四机路95号附近","state":3,"speed":7,"icon":"icon-stop"},{"label":"鄂DWB1VW","adcode":"421022","adname":"公安县","location":"112.213980,29.850723","address":"新建街与朝阳路交叉口东100米","state":3,"speed":8,"icon":"icon-stop"},{"label":"鄂DLH0BD","adcode":"421083","adname":"洪湖市","location":"113.770944,29.940901","address":"龙口镇蔬菜东风大道卧龙·金华庭","state":1,"speed":0,"icon":"icon-alerm"},{"label":"鄂DIN9F4","adcode":"421022","adname":"公安县","location":"112.295912,30.058409","address":"园林路与杨麻线交叉口东南150米","state":2,"speed":4,"icon":"icon-stop"},{"label":"鄂DXFTEN","adcode":"421023","adname":"监利县","location":"112.905511,29.852426","address":"容城镇新汽车站对面","state":3,"speed":8,"icon":"icon-stop"},{"label":"鄂DIPD13","adcode":"421022","adname":"公安县","location":"112.233332,30.287602","address":"埠河镇荆江大道朱胖子酒楼旁","state":4,"speed":89,"icon":"icon-drive"},{"label":"鄂D535DM","adcode":"421022","adname":"公安县","location":"112.015918,29.983105","address":"新建街与汪杨线交叉口西北50米","state":0,"speed":0,"icon":"icon-gray"},{"label":"鄂DSJ1W4","adcode":"421022","adname":"公安县","location":"112.092176,29.849802","address":"226省道西100米","state":1,"speed":0,"icon":"icon-alerm"},{"label":"鄂DZTF0W","adcode":"421023","adname":"监利县","location":"112.902420,29.849194","address":[],"state":4,"speed":78,"icon":"icon-drive"},{"label":"鄂DVBVE3","adcode":"421003","adname":"荆州区","location":"112.110423,30.398858","address":"杨场街70号附近","state":4,"speed":55,"icon":"icon-drive"},{"label":"鄂D1M6H2","adcode":"421022","adname":"公安县","location":"112.240054,30.286310","address":"埠河镇振兴路135号","state":3,"speed":9,"icon":"icon-stop"},{"label":"鄂DGIIHX","adcode":"421002","adname":"沙市区","location":"112.293711,30.355526","address":"关沮镇中小企业城西北(318国道西)","state":2,"speed":4,"icon":"icon-stop"},{"label":"鄂DA45L4","adcode":"421022","adname":"公安县","location":"112.240937,30.286649","address":"埠河镇新建街158号","state":1,"speed":0,"icon":"icon-alerm"},{"label":"鄂DRS4OP","adcode":"421022","adname":"公安县","location":"112.213980,29.850723","address":"章田寺乡新建街","state":1,"speed":0,"icon":"icon-alerm"},{"label":"鄂DWZNEI","adcode":"421022","adname":"公安县","location":"111.930565,29.887650","address":"襄东大道411号","state":3,"speed":8,"icon":"icon-stop"},{"label":"鄂DJ06JE","adcode":"421023","adname":"监利县","location":"112.905650,29.848072","address":"容城镇五洲国际商贸城2号楼A区2幢233-237","state":3,"speed":6,"icon":"icon-stop"},{"label":"鄂DRCH3Z","adcode":"421022","adname":"公安县","location":"112.015407,29.983609","address":"狮子口镇狮子口镇新建街200号","state":4,"speed":100,"icon":"icon-drive"},{"label":"鄂D3TVYH","adcode":"421022","adname":"公安县","location":"111.920927,29.884511","address":"襄东大道524附近","state":3,"speed":6,"icon":"icon-stop"},{"label":"鄂DA28I9","adcode":"421087","adname":"松滋市","location":"111.831567,30.198120","address":"群星村","state":0,"speed":0,"icon":"icon-gray"},{"label":"鄂DU74CN","adcode":"421002","adname":"沙市区","location":"112.307199,30.364873","address":"关沮四组花木市场旁","state":4,"speed":94,"icon":"icon-drive"},{"label":"鄂D6TPG2","adcode":"421024","adname":"江陵县","location":"112.302516,30.161792","address":"新华路与迎宾路交叉口西100米","state":2,"speed":4,"icon":"icon-stop"},{"label":"鄂D15F1W","adcode":"421002","adname":"沙市区","location":"112.269156,30.324405","address":"十号路5号","state":0,"speed":0,"icon":"icon-gray"},{"label":"鄂DFE4ZO","adcode":"421003","adname":"荆州区","location":"112.110619,30.398030","address":"关羽路26号","state":2,"speed":4,"icon":"icon-stop"},{"label":"鄂DI21X0","adcode":"421002","adname":"沙市区","location":"112.296439,30.281561","address":"北京路108号附近","state":4,"speed":59,"icon":"icon-drive"},{"label":"鄂DBAGVI","adcode":"421002","adname":"沙市区","location":"112.267457,30.320503","address":"红门路97-1号附近","state":0,"speed":0,"icon":"icon-gray"},{"label":"鄂DGRJTL","adcode":"421022","adname":"公安县","location":"112.093576,29.850764","address":"孟家溪镇西街与226省道交叉口南150米","state":0,"speed":0,"icon":"icon-gray"},{"label":"鄂D76J9Q","adcode":"421022","adname":"公安县","location":"112.225489,30.286690","address":"荆江路西100米","state":2,"speed":1,"icon":"icon-stop"},{"label":"鄂DSCR5G","adcode":"421022","adname":"公安县","location":"112.055731,29.990122","address":"G55二广高速北50米","state":2,"speed":4,"icon":"icon-stop"},{"label":"鄂DQLC1F","adcode":"421003","adname":"荆州区","location":"112.110920,30.399058","address":"杨场街78号附近","state":3,"speed":5,"icon":"icon-stop"},{"label":"鄂DW5DE0","adcode":"421083","adname":"洪湖市","location":"113.768950,29.937499","address":"振兴路与新新路交叉口西北50米","state":0,"speed":0,"icon":"icon-gray"},{"label":"鄂D16OI2","adcode":"421002","adname":"沙市区","location":"112.325854,30.357304","address":"向湖村3组23号","state":2,"speed":4,"icon":"icon-stop"},{"label":"鄂D3VOUG","adcode":"421002","adname":"沙市区","location":"112.266879,30.319408","address":"红门路93号","state":3,"speed":4,"icon":"icon-stop"},{"label":"鄂DKGTS9","adcode":"421002","adname":"沙市区","location":"112.292926,30.354132","address":"福星大道与318国道交叉口西50米","state":2,"speed":4,"icon":"icon-stop"},{"label":"鄂D7JNVJ","adcode":"421022","adname":"公安县","location":"112.022746,29.823137","address":"南街与汪郑线交叉口西200米","state":3,"speed":5,"icon":"icon-stop"},{"label":"鄂DUHRPA","adcode":"421022","adname":"公安县","location":"112.290527,30.060426","address":"杨麻线与集贸路交叉口东北50米","state":2,"speed":0,"icon":"icon-stop"},{"label":"鄂DGVMM9","adcode":"421083","adname":"洪湖市","location":"113.770676,29.940443","address":"龙口镇东风新区","state":4,"speed":59,"icon":"icon-drive"},{"label":"鄂DKSJWR","adcode":"421024","adname":"江陵县","location":"112.304028,30.161844","address":"滩桥镇中心街27号附近","state":0,"speed":0,"icon":"icon-gray"},{"label":"鄂D2VHJ1","adcode":"421022","adname":"公安县","location":"112.036920,29.869617","address":"汪家汊街53号附近","state":1,"speed":0,"icon":"icon-alerm"},{"label":"鄂DJJFCT","adcode":"421022","adname":"公安县","location":"111.929415,29.888450","address":"襄东大道北100米","state":1,"speed":0,"icon":"icon-alerm"},{"label":"鄂D2HE6J","adcode":"421022","adname":"公安县","location":"112.289213,30.060399","address":"建设路与杨麻线交叉口东南50米","state":2,"speed":1,"icon":"icon-stop"},{"label":"鄂DDP52N","adcode":"421002","adname":"沙市区","location":"112.267638,30.320812","address":"红门路97-2号附近","state":4,"speed":96,"icon":"icon-drive"},{"label":"鄂D4ACAQ","adcode":"421002","adname":"沙市区","location":"112.293698,30.358340","address":"银湖时代斜对面318国道边","state":3,"speed":8,"icon":"icon-stop"},{"label":"鄂DSLRK8","adcode":"421022","adname":"公安县","location":"112.094035,29.851884","address":"孟家溪镇西街与226省道交叉口东南50米","state":3,"speed":7,"icon":"icon-stop"},{"label":"鄂DC4Z9T","adcode":"421002","adname":"沙市区","location":"112.296441,30.281559","address":"北京东路沙隆达股份有限公司正对面","state":3,"speed":4,"icon":"icon-stop"},{"label":"鄂DAS62J","adcode":"421003","adname":"荆州区","location":"112.164645,30.365249","address":"西环路271号附近","state":4,"speed":52,"icon":"icon-drive"},{"label":"鄂DIAH3T","adcode":"421022","adname":"公安县","location":"112.292338,30.059032","address":"杨麻线南100米","state":2,"speed":3,"icon":"icon-stop"},{"label":"鄂DG2V83","adcode":"421023","adname":"监利县","location":"112.903240,29.846899","address":"红城乡百晟首府4-115号","state":2,"speed":0,"icon":"icon-stop"},{"label":"鄂DRKDLL","adcode":"421002","adname":"沙市区","location":"112.269051,30.324874","address":"红门路8号附近","state":2,"speed":5,"icon":"icon-stop"},{"label":"鄂D7Y943","adcode":"421022","adname":"公安县","location":"112.093597,29.850750","address":"孟家溪镇西街与226省道交叉口南200米","state":0,"speed":0,"icon":"icon-gray"},{"label":"鄂DEMSNT","adcode":"421023","adname":"监利县","location":"112.904630,29.847087","address":"北环大道","state":3,"speed":5,"icon":"icon-stop"},{"label":"鄂DV9F0Z","adcode":"421022","adname":"公安县","location":"112.093870,29.851659","address":"孟家溪镇西街与226省道交叉口南50米","state":3,"speed":10,"icon":"icon-stop"},{"label":"鄂DEBGWU","adcode":"421022","adname":"公安县","location":"112.233819,30.287984","address":"埠河中学旁","state":3,"speed":9,"icon":"icon-stop"},{"label":"鄂DNBURV","adcode":"421083","adname":"洪湖市","location":"113.767837,29.940358","address":"龙口镇东风大道8号","state":2,"speed":2,"icon":"icon-stop"},{"label":"鄂DY1K5A","adcode":"421022","adname":"公安县","location":"112.240937,30.286649","address":"埠河镇新建街158号","state":3,"speed":5,"icon":"icon-stop"},{"label":"鄂DTVCC5","adcode":"421022","adname":"公安县","location":"111.929520,29.886365","address":"襄东大道东150米","state":3,"speed":2,"icon":"icon-stop"},{"label":"鄂D8OAQ9","adcode":"421022","adname":"公安县","location":"112.220150,30.284390","address":"埠河镇二广高速公路桥南服务区桥南服务区荆州市长江公路大桥路政执法大队附近","state":0,"speed":0,"icon":"icon-gray"},{"label":"鄂D1B5MW","adcode":"421002","adname":"沙市区","location":"112.270121,30.326419","address":"十号路19号东北50米","state":2,"speed":2,"icon":"icon-stop"},{"label":"鄂D70DAF","adcode":"421083","adname":"洪湖市","location":"113.769644,29.937415","address":"振兴路与新新路交叉口东50米","state":2,"speed":3,"icon":"icon-stop"},{"label":"鄂DPN9AU","adcode":"421087","adname":"松滋市","location":"111.795660,30.194182","address":"永兴大道与金松大道交叉口东100米","state":4,"speed":92,"icon":"icon-drive"},{"label":"鄂DQTOO0","adcode":"421022","adname":"公安县","location":"111.929480,29.887223","address":"襄东大道352号附近","state":4,"speed":80,"icon":"icon-drive"},{"label":"鄂DH86UF","adcode":"421002","adname":"沙市区","location":"112.313490,30.361873","address":"长湖村一号路与318国道交叉口西150米","state":2,"speed":5,"icon":"icon-stop"},{"label":"鄂D196ES","adcode":"421003","adname":"荆州区","location":"112.110533,30.398956","address":"杨场街51附近","state":2,"speed":3,"icon":"icon-stop"},{"label":"鄂DV6375","adcode":"421003","adname":"荆州区","location":"112.110453,30.398987","address":"利民街与花新线交叉口西南100米","state":4,"speed":43,"icon":"icon-drive"},{"label":"鄂DT0SJL","adcode":"421083","adname":"洪湖市","location":"113.770015,29.940403","address":"振兴路与329省道交叉口东100米","state":2,"speed":4,"icon":"icon-stop"},{"label":"鄂DJ16SG","adcode":"421002","adname":"沙市区","location":"112.329538,30.356883","address":"桂鱼路与318国道交叉口西150米","state":1,"speed":0,"icon":"icon-alerm"},{"label":"鄂DMQ9AP","adcode":"421002","adname":"沙市区","location":"112.292857,30.283585","address":"北京路122号附近","state":1,"speed":0,"icon":"icon-alerm"},{"label":"鄂D0L5EW","adcode":"421003","adname":"荆州区","location":"112.164091,30.366585","address":"荆三线与西环路交叉口北100米","state":3,"speed":6,"icon":"icon-stop"},{"label":"鄂DGM1TS","adcode":"421023","adname":"监利县","location":"112.879768,29.901623","address":[],"state":0,"speed":0,"icon":"icon-gray"},{"label":"鄂DS107U","adcode":"421022","adname":"公安县","location":"112.014616,30.051479","address":"斑竹档镇育才路四十六号","state":4,"speed":106,"icon":"icon-drive"},{"label":"鄂D82R3U","adcode":"421023","adname":"监利县","location":"112.875610,29.906670","address":"观音村5组","state":3,"speed":2,"icon":"icon-stop"},{"label":"鄂D5HWGT","adcode":"421022","adname":"公安县","location":"112.240441,30.285639","address":"振兴路60附近","state":2,"speed":3,"icon":"icon-stop"},{"label":"鄂DNEYF3","adcode":"421022","adname":"公安县","location":"112.229995,30.287195","address":"观音当镇荆江路315号","state":2,"speed":5,"icon":"icon-stop"},{"label":"鄂DELCQW","adcode":"421022","adname":"公安县","location":"112.289774,30.060229","address":"杨麻线与集贸路交叉口西50米","state":1,"speed":0,"icon":"icon-alerm"},{"label":"鄂DWJU6U","adcode":"421022","adname":"公安县","location":"112.075149,30.042502","address":"毛家港镇茅穗里街4号","state":4,"speed":113,"icon":"icon-drive"},{"label":"鄂DIB6QY","adcode":"421024","adname":"江陵县","location":"112.301275,30.161761","address":"开发区滩桥镇南街加油站旁","state":0,"speed":0,"icon":"icon-gray"},{"label":"鄂DW42CE","adcode":"421022","adname":"公安县","location":"112.288696,30.060969","address":"建设路与杨麻线交叉口西北50米","state":2,"speed":1,"icon":"icon-stop"},{"label":"鄂DDWEKG","adcode":"421087","adname":"松滋市","location":"111.719166,30.208455","address":"254省道南50米","state":4,"speed":79,"icon":"icon-drive"},{"label":"鄂DD0MUS","adcode":"421022","adname":"公安县","location":"111.917862,29.883481","address":"襄东大道庄盛肥业公司东侧100米","state":4,"speed":119,"icon":"icon-drive"},{"label":"鄂D4LDFY","adcode":"421022","adname":"公安县","location":"112.208900,29.849415","address":"孟章线与新建街交叉口南200米","state":1,"speed":0,"icon":"icon-alerm"},{"label":"鄂DL5X5E","adcode":"421003","adname":"荆州区","location":"112.117992,30.399706","address":"花新线北50米","state":1,"speed":0,"icon":"icon-alerm"},{"label":"鄂DXQRFY","adcode":"421003","adname":"荆州区","location":"112.166615,30.347019","address":"西环路113号","state":3,"speed":2,"icon":"icon-stop"},{"label":"鄂DLJ0YM","adcode":"421022","adname":"公安县","location":"112.015407,29.983609","address":"狮子口镇狮子口镇新建街200号","state":0,"speed":0,"icon":"icon-gray"},{"label":"鄂DJXTYN","adcode":"421003","adname":"荆州区","location":"112.110453,30.398987","address":"利民街与花新线交叉口西南100米","state":1,"speed":0,"icon":"icon-alerm"},{"label":"鄂D3A7HI","adcode":"421023","adname":"监利县","location":"113.091133,29.810460","address":"汴河佳乐美超市","state":3,"speed":7,"icon":"icon-stop"},{"label":"鄂DMGJCG","adcode":"421022","adname":"公安县","location":"112.012687,29.981792","address":"狮河路5号附近","state":0,"speed":0,"icon":"icon-gray"},{"label":"鄂DCG56P","adcode":"421022","adname":"公安县","location":"112.015585,29.983288","address":"狮子口镇新建街190号","state":4,"speed":91,"icon":"icon-drive"},{"label":"鄂DKM66D","adcode":"421002","adname":"沙市区","location":"112.292857,30.283585","address":"北京路122号附近","state":3,"speed":8,"icon":"icon-stop"},{"label":"鄂DBLEF5","adcode":"421023","adname":"监利县","location":"112.900907,29.895977","address":"215省道东50米","state":3,"speed":7,"icon":"icon-stop"},{"label":"鄂DEF8VR","adcode":"421087","adname":"松滋市","location":"111.826314,30.201422","address":"金松大道南50米","state":4,"speed":116,"icon":"icon-drive"},{"label":"鄂DDT1GV","adcode":"421002","adname":"沙市区","location":"112.292926,30.354132","address":"福星大道与318国道交叉口西50米","state":2,"speed":2,"icon":"icon-stop"},{"label":"鄂DLHICV","adcode":"421087","adname":"松滋市","location":"111.805285,30.197418","address":"金松大道北50米附近","state":4,"speed":101,"icon":"icon-drive"},{"label":"鄂D6ECMJ","adcode":"421023","adname":"监利县","location":"112.905650,29.848072","address":"容城镇五洲国际商贸城2号楼A区2幢233-237","state":1,"speed":0,"icon":"icon-alerm"},{"label":"鄂DYCA4T","adcode":"421087","adname":"松滋市","location":"111.931028,30.169627","address":"沙道观镇四中路121号","state":0,"speed":0,"icon":"icon-gray"},{"label":"鄂DU7BH3","adcode":"421002","adname":"沙市区","location":"112.266879,30.319408","address":"红门路93号","state":1,"speed":0,"icon":"icon-alerm"},{"label":"鄂DRPY5C","adcode":"421023","adname":"监利县","location":"113.089736,29.810084","address":"赤卫路139号附近","state":1,"speed":0,"icon":"icon-alerm"},{"label":"鄂DBDNLF","adcode":"421022","adname":"公安县","location":"112.035714,29.874804","address":"汪家汊街与207国道交叉口西50米","state":1,"speed":0,"icon":"icon-alerm"},{"label":"鄂DYTBCH","adcode":"421022","adname":"公安县","location":"112.209448,29.851073","address":"新建街与民生路交叉口西150米","state":2,"speed":2,"icon":"icon-stop"},{"label":"鄂DT1DYG","adcode":"421023","adname":"监利县","location":"113.089945,29.809934","address":"赤卫路145号","state":4,"speed":102,"icon":"icon-drive"},{"label":"鄂DOCRQG","adcode":"421022","adname":"公安县","location":"112.285683,30.061898","address":"杨家厂镇杨麻线中国邮政旁","state":1,"speed":0,"icon":"icon-alerm"},{"label":"鄂DD1W75","adcode":"421023","adname":"监利县","location":"112.906670,29.849361","address":"北环大道北150米","state":4,"speed":111,"icon":"icon-drive"},{"label":"鄂DKBYT5","adcode":"421003","adname":"荆州区","location":"112.110060,30.397892","address":"关羽路与花新线交叉口西50米","state":3,"speed":1,"icon":"icon-stop"},{"label":"鄂DXLOTP","adcode":"421022","adname":"公安县","location":"112.014393,30.051557","address":"斑竹垱镇育才街","state":1,"speed":0,"icon":"icon-alerm"},{"label":"鄂D3RN6S","adcode":"421022","adname":"公安县","location":"112.093570,29.850852","address":"南街工商路与孟家溪镇西街交叉口南150米","state":3,"speed":5,"icon":"icon-stop"},{"label":"鄂D7OKVH","adcode":"421022","adname":"公安县","location":"112.292333,30.059256","address":"杨家厂地税局附近","state":1,"speed":0,"icon":"icon-alerm"},{"label":"鄂DSCNTK","adcode":"421022","adname":"公安县","location":"112.289344,30.060775","address":"建设路与杨麻线交叉口东50米","state":0,"speed":0,"icon":"icon-gray"},{"label":"鄂DVY9X1","adcode":"421083","adname":"洪湖市","location":"113.773635,29.936823","address":"龙口镇","state":1,"speed":0,"icon":"icon-alerm"},{"label":"鄂DXOAPB","adcode":"421022","adname":"公安县","location":"112.221169,30.281445","address":"桥南新区","state":3,"speed":10,"icon":"icon-stop"},{"label":"鄂DLPGMZ","adcode":"421087","adname":"松滋市","location":"111.899595,30.103547","address":"054县道西50米","state":3,"speed":9,"icon":"icon-stop"},{"label":"鄂DIJVZP","adcode":"421022","adname":"公安县","location":"112.014580,30.053311","address":"中央新城(黄张线南100米)","state":1,"speed":0,"icon":"icon-alerm"},{"label":"鄂D9B8D6","adcode":"421002","adname":"沙市区","location":"112.299502,30.352879","address":"318国道银湖工业园A14-2号","state":3,"speed":1,"icon":"icon-stop"},{"label":"鄂DUY8LA","adcode":"421083","adname":"洪湖市","location":"113.769398,29.939258","address":"龙口中学对面","state":3,"speed":4,"icon":"icon-stop"},{"label":"鄂D8JA4H","adcode":"421083","adname":"洪湖市","location":"113.769079,29.937929","address":"振兴路与新新路交叉口北100米","state":4,"speed":46,"icon":"icon-drive"},{"label":"鄂DRY6LS","adcode":"421022","adname":"公安县","location":"112.074842,30.042752","address":"茅穗里街与黄张线交叉口东50米","state":3,"speed":3,"icon":"icon-stop"},{"label":"鄂DBG0KL","adcode":"421022","adname":"公安县","location":"112.027334,29.823079","address":"南街与集贸街交叉口东150米","state":2,"speed":3,"icon":"icon-stop"},{"label":"鄂DRTN5D","adcode":"421022","adname":"公安县","location":"112.210619,29.851950","address":"章田寺乡民生路51号","state":4,"speed":53,"icon":"icon-drive"},{"label":"鄂D8E63G","adcode":"421024","adname":"江陵县","location":"112.302893,30.161796","address":"新华路与迎宾路交叉口西南50米","state":3,"speed":2,"icon":"icon-stop"},{"label":"鄂DGL3Z0","adcode":"421022","adname":"公安县","location":"112.213359,29.849968","address":"朝阳路5号","state":0,"speed":0,"icon":"icon-gray"},{"label":"鄂DAUZZR","adcode":"421023","adname":"监利县","location":"113.089714,29.810094","address":"赤卫路140附近","state":2,"speed":4,"icon":"icon-stop"},{"label":"鄂DJ7ESF","adcode":"421083","adname":"洪湖市","location":"113.770944,29.940901","address":"龙口镇蔬菜东风大道卧龙·金华庭","state":2,"speed":5,"icon":"icon-stop"},{"label":"鄂DKK4R1","adcode":"421002","adname":"沙市区","location":"112.293945,30.284255","address":"北京路与红光路交叉口东北150米","state":3,"speed":8,"icon":"icon-stop"},{"label":"鄂D5OHZI","adcode":"421023","adname":"监利县","location":"113.071940,29.809458","address":"S49随岳高速附近","state":2,"speed":3,"icon":"icon-stop"},{"label":"鄂D9FT2B","adcode":"421024","adname":"江陵县","location":"112.303509,30.162150","address":"新华路与迎宾路交叉口东50米","state":2,"speed":1,"icon":"icon-stop"},{"label":"鄂DUQM6B","adcode":"421023","adname":"监利县","location":"113.090404,29.809565","address":"赤卫路南100米","state":2,"speed":5,"icon":"icon-stop"},{"label":"鄂D4BWNS","adcode":"421003","adname":"荆州区","location":"112.166607,30.347096","address":"郢城镇西环路11号","state":3,"speed":9,"icon":"icon-stop"},{"label":"鄂D9YE2O","adcode":"421002","adname":"沙市区","location":"112.269807,30.326431","address":"红门路14号号附近","state":1,"speed":0,"icon":"icon-alerm"},{"label":"鄂DWZVBW","adcode":"421023","adname":"监利县","location":"113.090404,29.809565","address":"赤卫路南100米","state":1,"speed":0,"icon":"icon-alerm"},{"label":"鄂D9B283","adcode":"421003","adname":"荆州区","location":"112.168438,30.345628","address":"四机路与白龙五路交叉口东南50米","state":1,"speed":0,"icon":"icon-alerm"},{"label":"鄂D84VD8","adcode":"421022","adname":"公安县","location":"112.023582,29.827496","address":"郑公中学","state":4,"speed":113,"icon":"icon-drive"},{"label":"鄂D3T9IT","adcode":"421022","adname":"公安县","location":"112.293674,30.059383","address":"杨家厂镇政府斜对面","state":1,"speed":0,"icon":"icon-alerm"},{"label":"鄂DZO30W","adcode":"421023","adname":"监利县","location":"112.903396,29.847077","address":"江城路百晟首府3-106号","state":1,"speed":0,"icon":"icon-alerm"},{"label":"鄂DXV041","adcode":"421003","adname":"荆州区","location":"112.110453,30.398987","address":"利民街与花新线交叉口西南100米","state":0,"speed":0,"icon":"icon-gray"},{"label":"鄂D9FIO1","adcode":"421022","adname":"公安县","location":"112.287752,30.061252","address":"杨家厂镇新正街440号","state":3,"speed":4,"icon":"icon-stop"},{"label":"鄂DJ248R","adcode":"421083","adname":"洪湖市","location":"113.770015,29.940403","address":"振兴路与329省道交叉口东100米","state":2,"speed":4,"icon":"icon-stop"},{"label":"鄂D71NCY","adcode":"421002","adname":"沙市区","location":"112.292984,30.354298","address":"福星大道与318国道交叉口西北50米","state":3,"speed":9,"icon":"icon-stop"},{"label":"鄂D2KXJP","adcode":"421023","adname":"监利县","location":"113.089818,29.810105","address":"赤卫路141号附近","state":3,"speed":4,"icon":"icon-stop"},{"label":"鄂DMTQHL","adcode":"421002","adname":"沙市区","location":"112.293711,30.355526","address":"关沮镇中小企业城西北(318国道西)","state":1,"speed":0,"icon":"icon-alerm"},{"label":"鄂D7BL84","adcode":"421022","adname":"公安县","location":"111.917862,29.883481","address":"襄东大道庄盛肥业公司东侧100米","state":2,"speed":2,"icon":"icon-stop"},{"label":"鄂DACRFK","adcode":"421003","adname":"荆州区","location":"112.165329,30.365726","address":"北环路227号附近","state":1,"speed":0,"icon":"icon-alerm"},{"label":"鄂DQS826","adcode":"421023","adname":"监利县","location":"113.090197,29.809975","address":"汴河镇赤卫路98号","state":2,"speed":4,"icon":"icon-stop"},{"label":"鄂DLX8WJ","adcode":"421083","adname":"洪湖市","location":"113.605773,29.908533","address":"乌林镇街道特1号韵达快递旁","state":2,"speed":3,"icon":"icon-stop"},{"label":"鄂D5VFUA","adcode":"421022","adname":"公安县","location":"112.092757,29.849518","address":"226省道西50米","state":0,"speed":0,"icon":"icon-gray"},{"label":"鄂DXOZCX","adcode":"421087","adname":"松滋市","location":"111.814931,30.201929","address":"金松大道西50米","state":3,"speed":10,"icon":"icon-stop"},{"label":"鄂DW1URQ","adcode":"421023","adname":"监利县","location":"113.090802,29.810148","address":"赤卫路182号","state":0,"speed":0,"icon":"icon-gray"},{"label":"鄂D00K90","adcode":"421002","adname":"沙市区","location":"112.314075,30.361503","address":"锣场镇318国道大观园农庄附近","state":1,"speed":0,"icon":"icon-alerm"},{"label":"鄂DX1OB0","adcode":"421003","adname":"荆州区","location":"112.110514,30.397190","address":"八岭山镇杨场街19号","state":2,"speed":2,"icon":"icon-stop"},{"label":"鄂DYITAO","adcode":"421003","adname":"荆州区","location":"112.167716,30.345956","address":"四机厂四机医院对面","state":2,"speed":1,"icon":"icon-stop"},{"label":"鄂DJ8CM4","adcode":"421083","adname":"洪湖市","location":"113.768950,29.937499","address":"振兴路与新新路交叉口西北50米","state":2,"speed":0,"icon":"icon-stop"},{"label":"鄂DK9SJK","adcode":"421003","adname":"荆州区","location":"112.169802,30.345098","address":"四机路83号","state":3,"speed":8,"icon":"icon-stop"},{"label":"鄂D2CTAS","adcode":"421022","adname":"公安县","location":"111.930319,29.887966","address":"襄东大道423号附近","state":1,"speed":0,"icon":"icon-alerm"},{"label":"鄂D4FTYJ","adcode":"421003","adname":"荆州区","location":"112.169211,30.345324","address":"四机厂四机路89号天天超市旁","state":2,"speed":0,"icon":"icon-stop"},{"label":"鄂DBXLF6","adcode":"421022","adname":"公安县","location":"112.233819,30.287984","address":"埠河中学旁","state":3,"speed":7,"icon":"icon-stop"},{"label":"鄂DEOMJC","adcode":"421083","adname":"洪湖市","location":"113.605773,29.908533","address":"乌林镇街道特1号韵达快递旁","state":0,"speed":0,"icon":"icon-gray"},{"label":"鄂DQKH3F","adcode":"421022","adname":"公安县","location":"112.289213,30.060399","address":"建设路与杨麻线交叉口东南50米","state":0,"speed":0,"icon":"icon-gray"},{"label":"鄂D21Q3P","adcode":"421022","adname":"公安县","location":"112.017216,29.982343","address":"新建街163号","state":1,"speed":0,"icon":"icon-alerm"},{"label":"鄂DG9Z1R","adcode":"421022","adname":"公安县","location":"112.241825,30.286207","address":"新建街91号","state":1,"speed":0,"icon":"icon-alerm"},{"label":"鄂DHJNIG","adcode":"421022","adname":"公安县","location":"111.930217,29.88883","address":"襄东大道北150米","state":1,"speed":0,"icon":"icon-alerm"},{"label":"鄂DFPQEE","adcode":"421087","adname":"松滋市","location":"111.719166,30.208455","address":"254省道南50米","state":0,"speed":0,"icon":"icon-gray"},{"label":"鄂DTDOLF","adcode":"421022","adname":"公安县","location":"111.930055,29.887980","address":"章庄铺镇初级中学对面","state":2,"speed":5,"icon":"icon-stop"},{"label":"鄂DZKZUX","adcode":"421022","adname":"公安县","location":"112.285683,30.061898","address":"杨家厂镇杨麻线中国邮政旁","state":1,"speed":0,"icon":"icon-alerm"},{"label":"鄂DRH8J2","adcode":"421022","adname":"公安县","location":"112.094275,29.852562","address":"南街工商路与孟家溪镇西街交叉口西50米","state":3,"speed":3,"icon":"icon-stop"},{"label":"鄂DYLHGE","adcode":"421003","adname":"荆州区","location":"112.168438,30.345628","address":"四机路与白龙五路交叉口东南50米","state":0,"speed":0,"icon":"icon-gray"},{"label":"鄂DDLS2V","adcode":"421022","adname":"公安县","location":"112.240087,30.286758","address":"振兴路与新建街交叉口西北50米","state":2,"speed":4,"icon":"icon-stop"},{"label":"鄂DHYVJS","adcode":"421022","adname":"公安县","location":"112.017227,30.051512","address":"刘友家电(公安县斑竹垱镇政府西北)","state":2,"speed":3,"icon":"icon-stop"},{"label":"鄂DJDKLD","adcode":"421003","adname":"荆州区","location":"112.165031,30.366029","address":"郢城镇318国道新生村十字路口红绿灯下","state":4,"speed":49,"icon":"icon-drive"},{"label":"鄂DQQX6R","adcode":"421083","adname":"洪湖市","location":"113.770015,29.940403","address":"振兴路与329省道交叉口东100米","state":0,"speed":0,"icon":"icon-gray"},{"label":"鄂D98KCB","adcode":"421002","adname":"沙市区","location":"112.296981,30.281549","address":"北京路90附近","state":0,"speed":0,"icon":"icon-gray"},{"label":"鄂DPIYEX","adcode":"421002","adname":"沙市区","location":"112.266368,30.319129","address":"长港路66-5号","state":3,"speed":6,"icon":"icon-stop"},{"label":"鄂DEW10W","adcode":"421002","adname":"沙市区","location":"112.269041,30.324738","address":"红门路桥第二电缆厂旁","state":3,"speed":3,"icon":"icon-stop"},{"label":"鄂DPLSV8","adcode":"421022","adname":"公安县","location":"112.023890,29.826538","address":"汪郑线东50米","state":3,"speed":4,"icon":"icon-stop"},{"label":"鄂D95OFB","adcode":"421083","adname":"洪湖市","location":"113.769398,29.939258","address":"龙口中学对面","state":2,"speed":4,"icon":"icon-stop"},{"label":"鄂DBQXLC","adcode":"421022","adname":"公安县","location":"112.213250,29.849819","address":"朝阳路8号附近","state":3,"speed":5,"icon":"icon-stop"},{"label":"鄂D4P7FW","adcode":"421022","adname":"公安县","location":"112.289344,30.060775","address":"建设路与杨麻线交叉口东50米","state":3,"speed":9,"icon":"icon-stop"},{"label":"鄂DCHIOK","adcode":"421022","adname":"公安县","location":"112.093518,29.851940","address":"孟家溪镇西街与226省道交叉口西南50米","state":0,"speed":0,"icon":"icon-gray"},{"label":"鄂DH0R1I","adcode":"421022","adname":"公安县","location":"112.093957,29.852955","address":"孟家溪镇西街与226省道交叉口北100米","state":0,"speed":0,"icon":"icon-gray"},{"label":"鄂D9XVUW","adcode":"421002","adname":"沙市区","location":"112.291659,30.355887","address":"沙市318国道与十号路交汇处","state":3,"speed":10,"icon":"icon-stop"},{"label":"鄂DYW2Q0","adcode":"421003","adname":"荆州区","location":"112.164907,30.365360","address":"西环路284号","state":3,"speed":4,"icon":"icon-stop"},{"label":"鄂DL9J6K","adcode":"421022","adname":"公安县","location":"112.240592,30.287009","address":"振兴路94号附近","state":2,"speed":4,"icon":"icon-stop"},{"label":"鄂DOV4N1","adcode":"421003","adname":"荆州区","location":"112.110060,30.397892","address":"关羽路与花新线交叉口西50米","state":1,"speed":0,"icon":"icon-alerm"},{"label":"鄂D922QU","adcode":"421022","adname":"公安县","location":"112.215847,29.851052","address":"章田寺初级中学旁边","state":3,"speed":7,"icon":"icon-stop"},{"label":"鄂DCZBA8","adcode":"421022","adname":"公安县","location":"112.017111,30.050403","address":"河街与育才路交叉口西北150米","state":3,"speed":9,"icon":"icon-stop"},{"label":"鄂DEQHNW","adcode":"421022","adname":"公安县","location":"112.023890,29.826538","address":"汪郑线东50米","state":3,"speed":9,"icon":"icon-stop"},{"label":"鄂DZ0S3A","adcode":"421022","adname":"公安县","location":"112.093576,29.850764","address":"孟家溪镇西街与226省道交叉口南150米","state":3,"speed":9,"icon":"icon-stop"},{"label":"鄂D1H7AV","adcode":"421087","adname":"松滋市","location":"111.715408,30.211442","address":"254省道东50米","state":3,"speed":7,"icon":"icon-stop"},{"label":"鄂DOBNF8","adcode":"421002","adname":"沙市区","location":"112.296583,30.281445","address":"北京路东50米","state":1,"speed":0,"icon":"icon-alerm"},{"label":"鄂DYROIH","adcode":"421002","adname":"沙市区","location":"112.296010,30.364137","address":"318国道西100米","state":3,"speed":1,"icon":"icon-stop"},{"label":"鄂DFYOO7","adcode":"421022","adname":"公安县","location":"112.295155,30.058636","address":"园林路与杨麻线交叉口东南100米","state":2,"speed":3,"icon":"icon-stop"},{"label":"鄂D521KQ","adcode":"421023","adname":"监利县","location":"113.089283,29.809975","address":"汴河街赤卫路122号","state":1,"speed":0,"icon":"icon-alerm"},{"label":"鄂D3BOZM","adcode":"421002","adname":"沙市区","location":"112.296981,30.281549","address":"北京路90附近","state":3,"speed":4,"icon":"icon-stop"},{"label":"鄂DKZN0G","adcode":"421022","adname":"公安县","location":"112.290527,30.060426","address":"杨麻线与集贸路交叉口东北50米","state":3,"speed":10,"icon":"icon-stop"},{"label":"鄂DMVXQ6","adcode":"421083","adname":"洪湖市","location":"113.594961,29.909613","address":"乌林镇曹操湾东侧,悦兮半岛国际温泉度假村","state":3,"speed":10,"icon":"icon-stop"},{"label":"鄂DUHXUM","adcode":"421022","adname":"公安县","location":"112.210619,29.851950","address":"章田寺乡民生路51号","state":3,"speed":6,"icon":"icon-stop"},{"label":"鄂D7GIIP","adcode":"421022","adname":"公安县","location":"112.220150,30.284390","address":"埠河镇二广高速公路桥南服务区桥南服务区荆州市长江公路大桥路政执法大队附近","state":3,"speed":9,"icon":"icon-stop"},{"label":"鄂DXRWR8","adcode":"421002","adname":"沙市区","location":"112.268750,30.324061","address":"立新乡红门路桥北30米第二电缆厂","state":2,"speed":2,"icon":"icon-stop"},{"label":"鄂D72D13","adcode":"421002","adname":"沙市区","location":"112.293768,30.358252","address":"关沮镇银湖时代斜318国道宇鑫物流院内","state":1,"speed":0,"icon":"icon-alerm"},{"label":"鄂DEYC54","adcode":"421087","adname":"松滋市","location":"111.928880,30.165722","address":"八宝镇龟咀村八组","state":1,"speed":0,"icon":"icon-alerm"},{"label":"鄂DPGAHU","adcode":"421087","adname":"松滋市","location":"111.802830,30.196075","address":"八宝镇大桥村七组12号","state":3,"speed":3,"icon":"icon-stop"},{"label":"鄂DPVIXO","adcode":"421022","adname":"公安县","location":"112.231547,30.289614","address":"埠河镇财政管理所旁","state":3,"speed":4,"icon":"icon-stop"},{"label":"鄂DRPONW","adcode":"421002","adname":"沙市区","location":"112.294538,30.282736","address":"北京东路108号","state":0,"speed":0,"icon":"icon-gray"},{"label":"鄂D3GDG2","adcode":"421083","adname":"洪湖市","location":"113.769073,29.938477","address":"龙口镇龙口小学斜对门","state":4,"speed":56,"icon":"icon-drive"},{"label":"鄂DTR7PI","adcode":"421083","adname":"洪湖市","location":"113.769073,29.938549","address":"振兴路与新新路交叉口北150米","state":2,"speed":3,"icon":"icon-stop"},{"label":"鄂DED6N0","adcode":"421083","adname":"洪湖市","location":"113.769386,29.937420","address":"S329振兴路和新新路交叉口","state":3,"speed":1,"icon":"icon-stop"},{"label":"鄂DW8APX","adcode":"421002","adname":"沙市区","location":"112.267014,30.320512","address":"十号路19号美源酒店巷内一百米","state":3,"speed":6,"icon":"icon-stop"},{"label":"鄂DH4XCL","adcode":"421083","adname":"洪湖市","location":"113.607765,29.907638","address":"103省道西150米","state":2,"speed":5,"icon":"icon-stop"},{"label":"鄂D32AUX","adcode":"421083","adname":"洪湖市","location":"113.769644,29.937415","address":"振兴路与新新路交叉口东50米","state":1,"speed":0,"icon":"icon-alerm"},{"label":"鄂DG8JO7","adcode":"421022","adname":"公安县","location":"112.229995,30.287195","address":"观音当镇荆江路315号","state":2,"speed":3,"icon":"icon-stop"},{"label":"鄂D2FG1G","adcode":"421022","adname":"公安县","location":"112.208841,29.850955","address":"章田寺乡大众路3号","state":4,"speed":53,"icon":"icon-drive"},{"label":"鄂DG5OOM","adcode":"421087","adname":"松滋市","location":"111.852347,30.187453","address":[],"state":3,"speed":7,"icon":"icon-stop"},{"label":"鄂D39RVL","adcode":"421087","adname":"松滋市","location":"111.926593,30.165116","address":"322省道南50米","state":0,"speed":0,"icon":"icon-gray"},{"label":"鄂DQES03","adcode":"421022","adname":"公安县","location":"112.036306,29.871097","address":"汪家汊街108号附近","state":2,"speed":5,"icon":"icon-stop"},{"label":"鄂DHMW2D","adcode":"421002","adname":"沙市区","location":"112.267408,30.321386","address":"胜利街道红门北路88号","state":0,"speed":0,"icon":"icon-gray"},{"label":"鄂DPMJMW","adcode":"421087","adname":"松滋市","location":"111.808797,30.198741","address":"八宝镇东岳原种场村二组","state":1,"speed":0,"icon":"icon-alerm"},{"label":"鄂DRQO63","adcode":"421022","adname":"公安县","location":"112.017753,29.981514","address":"新建街天天超市内","state":0,"speed":0,"icon":"icon-gray"},{"label":"鄂DE39NX","adcode":"421087","adname":"松滋市","location":"111.804189,30.196989","address":"金松大道北50米","state":0,"speed":0,"icon":"icon-gray"},{"label":"鄂DGOSLZ","adcode":"421022","adname":"公安县","location":"112.209608,29.850764","address":"章田寺新街街18号","state":1,"speed":0,"icon":"icon-alerm"},{"label":"鄂DTISJD","adcode":"421022","adname":"公安县","location":"112.233229,30.287588","address":"胜利街264号附近","state":3,"speed":4,"icon":"icon-stop"},{"label":"鄂DG18BK","adcode":"421002","adname":"沙市区","location":"112.269439,30.325038","address":"十号路7号","state":0,"speed":0,"icon":"icon-gray"},{"label":"鄂D3OXYE","adcode":"421002","adname":"沙市区","location":"112.294169,30.283145","address":"北京东路沙隆达幼儿园旁","state":0,"speed":0,"icon":"icon-gray"},{"label":"鄂DA5FCM","adcode":"421023","adname":"监利县","location":"112.879768,29.901623","address":[],"state":1,"speed":0,"icon":"icon-alerm"},{"label":"鄂DMI00P","adcode":"421022","adname":"公安县","location":"111.919338,29.884466","address":"章庄铺镇襄东大道脉气弯加油站西50米","state":2,"speed":1,"icon":"icon-stop"},{"label":"鄂DY9CS5","adcode":"421083","adname":"洪湖市","location":"113.604673,29.909487","address":"黄蓬大道乌林镇中心学校西南角","state":1,"speed":0,"icon":"icon-alerm"},{"label":"鄂DDAGJE","adcode":"421083","adname":"洪湖市","location":"113.602968,29.911671","address":"乌林镇","state":4,"speed":84,"icon":"icon-drive"},{"label":"鄂D9W8XB","adcode":"421083","adname":"洪湖市","location":"113.769398,29.939258","address":"龙口中学对面","state":3,"speed":2,"icon":"icon-stop"},{"label":"鄂DUVKQ1","adcode":"421083","adname":"洪湖市","location":"113.769505,29.940312","address":"振兴路与329省道交叉口东50米","state":3,"speed":7,"icon":"icon-stop"},{"label":"鄂DU0M9B","adcode":"421002","adname":"沙市区","location":"112.296265,30.281684","address":"北京路88号附近","state":1,"speed":0,"icon":"icon-alerm"},{"label":"鄂DD6LU7","adcode":"421002","adname":"沙市区","location":"112.269156,30.325121","address":"立新乡张沟村二组15","state":3,"speed":3,"icon":"icon-stop"},{"label":"鄂DE1SHX","adcode":"421023","adname":"监利县","location":"112.904943,29.847089","address":"江城路百晟首府SQ-1-111号商铺","state":4,"speed":60,"icon":"icon-drive"},{"label":"鄂D8VHCY","adcode":"421022","adname":"公安县","location":"112.233229,30.287588","address":"胜利街264号附近","state":4,"speed":54,"icon":"icon-drive"},{"label":"鄂DQI5XY","adcode":"421022","adname":"公安县","location":"112.240054,30.286310","address":"埠河镇振兴路135号","state":3,"speed":6,"icon":"icon-stop"},{"label":"鄂DDPPSW","adcode":"421023","adname":"监利县","location":"113.090442,29.810061","address":"汴河镇家家旺超市斜对面","state":2,"speed":5,"icon":"icon-stop"},{"label":"鄂DP3N92","adcode":"421087","adname":"松滋市","location":"111.794519,30.193636","address":"永兴大道与金松大道交叉口北100米","state":3,"speed":7,"icon":"icon-stop"},{"label":"鄂DBHBJK","adcode":"421023","adname":"监利县","location":"112.920426,29.865761","address":[],"state":3,"speed":3,"icon":"icon-stop"},{"label":"鄂DXZW1N","adcode":"421023","adname":"监利县","location":"113.090940,29.810410","address":"赤卫路188号附近","state":3,"speed":3,"icon":"icon-stop"},{"label":"鄂DJXWF5","adcode":"421003","adname":"荆州区","location":"112.166607,30.347096","address":"郢城镇西环路11号","state":3,"speed":5,"icon":"icon-stop"},{"label":"鄂DM756Q","adcode":"421003","adname":"荆州区","location":"112.163537,30.366069","address":"荆三线","state":2,"speed":2,"icon":"icon-stop"},{"label":"鄂DILALS","adcode":"421083","adname":"洪湖市","location":"113.600550,29.905778","address":"103省道乌林镇中心中学斜对面","state":1,"speed":0,"icon":"icon-alerm"},{"label":"鄂DR32GB","adcode":"421022","adname":"公安县","location":"112.213980,29.850723","address":"新建街与朝阳路交叉口东100米","state":2,"speed":1,"icon":"icon-stop"},{"label":"鄂DBNDBO","adcode":"421022","adname":"公安县","location":"112.017111,30.050403","address":"河街与育才路交叉口西北150米","state":3,"speed":7,"icon":"icon-stop"},{"label":"鄂DCLMJX","adcode":"421087","adname":"松滋市","location":"111.805285,30.197418","address":"金松大道北50米附近","state":1,"speed":0,"icon":"icon-alerm"},{"label":"鄂DQMMVI","adcode":"421087","adname":"松滋市","location":"111.795665,30.192318","address":"永兴大道1号附近","state":1,"speed":0,"icon":"icon-alerm"},{"label":"鄂DRV0E1","adcode":"421022","adname":"公安县","location":"112.294752,30.058756","address":"园林路与杨麻线交叉口南50米","state":4,"speed":80,"icon":"icon-drive"},{"label":"鄂D32O8Y","adcode":"421003","adname":"荆州区","location":"112.165329,30.365726","address":"北环路227号附近","state":0,"speed":0,"icon":"icon-gray"},{"label":"鄂D5UOLY","adcode":"421022","adname":"公安县","location":"111.929486,29.887756","address":"襄东大道350号附近","state":0,"speed":0,"icon":"icon-gray"},{"label":"鄂DWV85S","adcode":"421022","adname":"公安县","location":"112.293674,30.059383","address":"杨家厂镇政府斜对面","state":3,"speed":7,"icon":"icon-stop"},{"label":"鄂DCR2PJ","adcode":"421087","adname":"松滋市","location":"111.715408,30.211442","address":"254省道东50米","state":1,"speed":0,"icon":"icon-alerm"},{"label":"鄂D0C7DP","adcode":"421022","adname":"公安县","location":"112.215847,29.851052","address":"章田寺初级中学旁边","state":2,"speed":1,"icon":"icon-stop"},{"label":"鄂DUUQQK","adcode":"421002","adname":"沙市区","location":"112.293698,30.358340","address":"银湖时代斜对面318国道边","state":3,"speed":4,"icon":"icon-stop"},{"label":"鄂DXPBQ5","adcode":"421087","adname":"松滋市","location":"111.715408,30.211442","address":"254省道东50米","state":2,"speed":3,"icon":"icon-stop"},{"label":"鄂DPSSR6","adcode":"421022","adname":"公安县","location":"112.221169,30.281445","address":"桥南新区","state":4,"speed":88,"icon":"icon-drive"},{"label":"鄂D42UD0","adcode":"421022","adname":"公安县","location":"112.225489,30.286690","address":"荆江路西100米","state":2,"speed":4,"icon":"icon-stop"},{"label":"鄂DY6TOT","adcode":"421024","adname":"江陵县","location":"112.301460,30.161335","address":"滩桥镇祥云路18号","state":1,"speed":0,"icon":"icon-alerm"},{"label":"鄂DIUASY","adcode":"421002","adname":"沙市区","location":"112.268750,30.324061","address":"立新乡红门路桥北30米第二电缆厂","state":0,"speed":0,"icon":"icon-gray"},{"label":"鄂D7LM86","adcode":"421087","adname":"松滋市","location":"111.899595,30.103547","address":"054县道西50米","state":1,"speed":0,"icon":"icon-alerm"},{"label":"鄂DDXYFV","adcode":"421023","adname":"监利县","location":"113.089283,29.809975","address":"汴河街赤卫路122号","state":0,"speed":0,"icon":"icon-gray"},{"label":"鄂DUJVUM","adcode":"421087","adname":"松滋市","location":"111.931028,30.169627","address":"沙道观镇四中路121号","state":0,"speed":0,"icon":"icon-gray"},{"label":"鄂D6583I","adcode":"421022","adname":"公安县","location":"112.093957,29.852955","address":"孟家溪镇西街与226省道交叉口北100米","state":2,"speed":1,"icon":"icon-stop"},{"label":"鄂DHP7TR","adcode":"421003","adname":"荆州区","location":"112.168486,30.345602","address":"四机路105号","state":2,"speed":1,"icon":"icon-stop"},{"label":"鄂DLAYUN","adcode":"421022","adname":"公安县","location":"112.094170,29.852267","address":"南街工商路与孟家溪镇西街交叉口东北50米","state":4,"speed":46,"icon":"icon-drive"},{"label":"鄂DTMV7E","adcode":"421022","adname":"公安县","location":"111.929480,29.887223","address":"襄东大道352号附近","state":1,"speed":0,"icon":"icon-alerm"},{"label":"鄂DLV3BL","adcode":"421083","adname":"洪湖市","location":"113.610634,29.908842","address":"乌林镇103省道旁","state":1,"speed":0,"icon":"icon-alerm"},{"label":"鄂DU8KA0","adcode":"421002","adname":"沙市区","location":"112.292757,30.353806","address":"关沮镇318国道银湖时代对面","state":3,"speed":6,"icon":"icon-stop"},{"label":"鄂DUKSBV","adcode":"421002","adname":"沙市区","location":"112.298997,30.371792","address":"凤凰村路东50米","state":2,"speed":0,"icon":"icon-stop"},{"label":"鄂DVBYQJ","adcode":"421083","adname":"洪湖市","location":"113.606522,29.909124","address":"乌林大市场","state":3,"speed":7,"icon":"icon-stop"},{"label":"鄂DK641M","adcode":"421022","adname":"公安县","location":"112.014393,30.051557","address":"斑竹垱镇育才街","state":0,"speed":0,"icon":"icon-gray"},{"label":"鄂DTVOUZ","adcode":"421003","adname":"荆州区","location":"112.110927,30.397841","address":"关羽路与花新线交叉口东50米","state":3,"speed":8,"icon":"icon-stop"},{"label":"鄂DODCCX","adcode":"421083","adname":"洪湖市","location":"113.769644,29.937415","address":"振兴路与新新路交叉口东50米","state":1,"speed":0,"icon":"icon-alerm"},{"label":"鄂DUH2UM","adcode":"421024","adname":"江陵县","location":"112.302596,30.160727","address":"教育路39号附近","state":0,"speed":0,"icon":"icon-gray"},{"label":"鄂D6BX95","adcode":"421022","adname":"公安县","location":"112.027334,29.823079","address":"南街与集贸街交叉口东150米","state":3,"speed":9,"icon":"icon-stop"},{"label":"鄂DRRKTE","adcode":"421003","adname":"荆州区","location":"112.110453,30.398987","address":"利民街与花新线交叉口西南100米","state":2,"speed":1,"icon":"icon-stop"},{"label":"鄂D03NAY","adcode":"421023","adname":"监利县","location":"112.905818,29.857108","address":"杨铺村江城北路与发展大道交汇处红绿灯路口","state":0,"speed":0,"icon":"icon-gray"},{"label":"鄂DF57MB","adcode":"421022","adname":"公安县","location":"112.015133,30.052798","address":"斑竹垱镇中心街183号","state":2,"speed":5,"icon":"icon-stop"},{"label":"鄂D0FPGV","adcode":"421024","adname":"江陵县","location":"112.302740,30.161065","address":"新华路与迎宾路交叉口南150米","state":0,"speed":0,"icon":"icon-gray"},{"label":"鄂DVX042","adcode":"421022","adname":"公安县","location":"112.275470,30.060282","address":"公石路13-121号(公安县杨家厂农村信用合作社西)","state":4,"speed":109,"icon":"icon-drive"},{"label":"鄂DO5G6Q","adcode":"421002","adname":"沙市区","location":"112.269156,30.324405","address":"十号路5号","state":4,"speed":113,"icon":"icon-drive"},{"label":"鄂DJJD3H","adcode":"421083","adname":"洪湖市","location":"113.600550,29.905778","address":"103省道乌林镇中心中学斜对面","state":2,"speed":2,"icon":"icon-stop"},{"label":"鄂D3GWZK","adcode":"421003","adname":"荆州区","location":"112.110533,30.398956","address":"杨场街51附近","state":2,"speed":5,"icon":"icon-stop"},{"label":"鄂DTQ1QV","adcode":"421022","adname":"公安县","location":"112.093645,29.852351","address":"孟家溪镇西街与226省道交叉口西北50米","state":0,"speed":0,"icon":"icon-gray"},{"label":"鄂DR0PU8","adcode":"421087","adname":"松滋市","location":"111.852524,30.061741","address":"东湖购物广场(岳宜高速公路北)","state":3,"speed":10,"icon":"icon-stop"},{"label":"鄂D06IPX","adcode":"421083","adname":"洪湖市","location":"113.602968,29.911671","address":"乌林镇","state":2,"speed":5,"icon":"icon-stop"},{"label":"鄂DPUCPM","adcode":"421022","adname":"公安县","location":"112.241047,30.286633","address":"振兴路中国移动旁","state":0,"speed":0,"icon":"icon-gray"},{"label":"鄂DREUXQ","adcode":"421022","adname":"公安县","location":"112.240582,30.286920","address":"埠河镇振兴路94号(正兴酒店对面)","state":3,"speed":1,"icon":"icon-stop"},{"label":"鄂DC681M","adcode":"421087","adname":"松滋市","location":"111.733959,30.186895","address":[],"state":1,"speed":0,"icon":"icon-alerm"},{"label":"鄂D4C4XR","adcode":"421087","adname":"松滋市","location":"111.852347,30.187453","address":[],"state":2,"speed":3,"icon":"icon-stop"},{"label":"鄂DOMM0L","adcode":"421024","adname":"江陵县","location":"112.301275,30.161761","address":"开发区滩桥镇南街加油站旁","state":3,"speed":6,"icon":"icon-stop"},{"label":"鄂D3FWLU","adcode":"421002","adname":"沙市区","location":"112.296364,30.281613","address":"北京东路沙隆达集团正门对面","state":1,"speed":0,"icon":"icon-alerm"},{"label":"鄂D91IX7","adcode":"421087","adname":"松滋市","location":"111.931071,30.169260","address":"沙道观镇四中路125号","state":3,"speed":3,"icon":"icon-stop"},{"label":"鄂D2GURW","adcode":"421022","adname":"公安县","location":"112.015918,29.983105","address":"新建街与汪杨线交叉口西北50米","state":0,"speed":0,"icon":"icon-gray"},{"label":"鄂D8ZMHJ","adcode":"421024","adname":"江陵县","location":"112.303617,30.162103","address":"教育路4号附近","state":3,"speed":5,"icon":"icon-stop"},{"label":"鄂DE615Z","adcode":"421083","adname":"洪湖市","location":"113.604260,29.910019","address":"乌林街道乌林中学旁","state":1,"speed":0,"icon":"icon-alerm"},{"label":"鄂D40E9G","adcode":"421023","adname":"监利县","location":"112.904943,29.847089","address":"江城路百晟首府SQ-1-111号商铺","state":3,"speed":8,"icon":"icon-stop"},{"label":"鄂DFG0V9","adcode":"421002","adname":"沙市区","location":"112.266938,30.320340","address":"红门路84-5号附近","state":2,"speed":4,"icon":"icon-stop"},{"label":"鄂DW95A3","adcode":"421003","adname":"荆州区","location":"112.167763,30.345937","address":"四机路107号","state":0,"speed":0,"icon":"icon-gray"},{"label":"鄂D8JV2U","adcode":"421002","adname":"沙市区","location":"112.266368,30.319129","address":"长港路66-5号","state":2,"speed":1,"icon":"icon-stop"},{"label":"鄂DEGD6M","adcode":"421002","adname":"沙市区","location":"112.270475,30.322976","address":"荆沙大道红门路桥东侧50米","state":2,"speed":1,"icon":"icon-stop"},{"label":"鄂DXNG9K","adcode":"421003","adname":"荆州区","location":"112.164645,30.365249","address":"西环路271号附近","state":0,"speed":0,"icon":"icon-gray"},{"label":"鄂D0D6ID","adcode":"421022","adname":"公安县","location":"112.015133,30.052798","address":"斑竹垱镇中心街183号","state":1,"speed":0,"icon":"icon-alerm"},{"label":"鄂DRDKLP","adcode":"421022","adname":"公安县","location":"111.930745,29.888327","address":"襄东大道383号附近","state":2,"speed":4,"icon":"icon-stop"},{"label":"鄂DS0MHC","adcode":"421083","adname":"洪湖市","location":"113.769386,29.937420","address":"S329振兴路和新新路交叉口","state":1,"speed":0,"icon":"icon-alerm"},{"label":"鄂DPCG2W","adcode":"421003","adname":"荆州区","location":"112.166607,30.347096","address":"郢城镇西环路11号","state":0,"speed":0,"icon":"icon-gray"},{"label":"鄂DT885L","adcode":"421003","adname":"荆州区","location":"112.163537,30.366069","address":"荆三线","state":2,"speed":3,"icon":"icon-stop"},{"label":"鄂D61WH4","adcode":"421024","adname":"江陵县","location":"112.301101,30.161732","address":"新华路1号(滩桥卫生院西)","state":3,"speed":1,"icon":"icon-stop"},{"label":"鄂DCMUV9","adcode":"421002","adname":"沙市区","location":"112.293749,30.358592","address":"银湖时代北宇鑫物流院内","state":0,"speed":0,"icon":"icon-gray"},{"label":"鄂DG7R9F","adcode":"421022","adname":"公安县","location":"112.212701,29.850805","address":"新建街与朝阳路交叉口西50米","state":1,"speed":0,"icon":"icon-alerm"},{"label":"鄂DX4NJB","adcode":"421023","adname":"监利县","location":"113.090197,29.809975","address":"汴河镇赤卫路98号","state":4,"speed":103,"icon":"icon-drive"},{"label":"鄂DCAYHU","adcode":"421022","adname":"公安县","location":"112.241599,30.286864","address":"新建街2-1号附近","state":2,"speed":2,"icon":"icon-stop"},{"label":"鄂D3QO8V","adcode":"421083","adname":"洪湖市","location":"113.604260,29.910019","address":"乌林街道乌林中学旁","state":3,"speed":4,"icon":"icon-stop"},{"label":"鄂DZFXQX","adcode":"421022","adname":"公安县","location":"112.240592,30.287009","address":"振兴路94号附近","state":3,"speed":4,"icon":"icon-stop"},{"label":"鄂DXHRI3","adcode":"421083","adname":"洪湖市","location":"113.605922,29.908439","address":"103省道乌林派出所北行50米","state":3,"speed":3,"icon":"icon-stop"},{"label":"鄂D3YR59","adcode":"421022","adname":"公安县","location":"112.025762,29.832832","address":[],"state":0,"speed":0,"icon":"icon-gray"},{"label":"鄂D5EQB8","adcode":"421083","adname":"洪湖市","location":"113.773635,29.936823","address":"龙口镇","state":3,"speed":5,"icon":"icon-stop"},{"label":"鄂DOXURR","adcode":"421002","adname":"沙市区","location":"112.299502,30.352879","address":"318国道银湖工业园A14-2号","state":3,"speed":9,"icon":"icon-stop"},{"label":"鄂D0BQ1T","adcode":"421002","adname":"沙市区","location":"112.296439,30.281561","address":"北京路108号附近","state":2,"speed":3,"icon":"icon-stop"},{"label":"鄂D8DRIV","adcode":"421022","adname":"公安县","location":"112.239963,30.284946","address":"振兴路69号附近","state":3,"speed":7,"icon":"icon-stop"},{"label":"鄂DZP0EO","adcode":"421087","adname":"松滋市","location":"111.666600,30.240458","address":"254省道西200米","state":3,"speed":6,"icon":"icon-stop"},{"label":"鄂D5H7O6","adcode":"421087","adname":"松滋市","location":"111.928324,30.165220","address":"中渡口村96号","state":1,"speed":0,"icon":"icon-alerm"},{"label":"鄂D1Y7UV","adcode":"421022","adname":"公安县","location":"112.017216,29.982343","address":"新建街163号","state":2,"speed":1,"icon":"icon-stop"},{"label":"鄂DPIVD3","adcode":"421003","adname":"荆州区","location":"112.165200,30.366048","address":"北环路452号附近","state":0,"speed":0,"icon":"icon-gray"},{"label":"鄂DJYHJT","adcode":"421022","adname":"公安县","location":"112.091110,29.829807","address":"双湖路附近","state":3,"speed":5,"icon":"icon-stop"},{"label":"鄂DUU5HJ","adcode":"421002","adname":"沙市区","location":"112.267088,30.320850","address":"解放路天阳小区","state":2,"speed":3,"icon":"icon-stop"},{"label":"鄂DL1T2C","adcode":"421003","adname":"荆州区","location":"112.165200,30.366048","address":"北环路452号附近","state":3,"speed":5,"icon":"icon-stop"},{"label":"鄂DAJ5MA","adcode":"421022","adname":"公安县","location":"111.921123,29.884644","address":"襄东大道518附近","state":3,"speed":6,"icon":"icon-stop"},{"label":"鄂D3RT4J","adcode":"421022","adname":"公安县","location":"112.289344,30.060775","address":"建设路与杨麻线交叉口东50米","state":4,"speed":76,"icon":"icon-drive"},{"label":"鄂DPZMSF","adcode":"421022","adname":"公安县","location":"112.016599,29.982722","address":"新建街狮子口工商局","state":1,"speed":0,"icon":"icon-alerm"},{"label":"鄂D4AD8J","adcode":"421022","adname":"公安县","location":"112.208942,29.850973","address":"民生路桥头1号","state":3,"speed":5,"icon":"icon-stop"},{"label":"鄂DBJTAZ","adcode":"421022","adname":"公安县","location":"112.036903,29.869855","address":"章庄铺镇汪家汊加油站","state":0,"speed":0,"icon":"icon-gray"},{"label":"鄂D6UFDM","adcode":"421087","adname":"松滋市","location":"111.925322,30.165846","address":"322省道北50米","state":1,"speed":0,"icon":"icon-alerm"},{"label":"鄂DX1RNX","adcode":"421023","adname":"监利县","location":"112.937963,29.918073","address":[],"state":4,"speed":75,"icon":"icon-drive"},{"label":"鄂D9PG33","adcode":"421003","adname":"荆州区","location":"112.110453,30.398987","address":"利民街与花新线交叉口西南100米","state":4,"speed":40,"icon":"icon-drive"},{"label":"鄂DO2NFF","adcode":"421022","adname":"公安县","location":"112.094158,29.852226","address":"孟家溪镇南街97号","state":1,"speed":0,"icon":"icon-alerm"},{"label":"鄂D5XJCH","adcode":"421022","adname":"公安县","location":"112.024601,29.822777","address":"郑公镇西街55号","state":0,"speed":0,"icon":"icon-gray"},{"label":"鄂DA5HHS","adcode":"421022","adname":"公安县","location":"112.027334,29.823079","address":"南街与集贸街交叉口东150米","state":2,"speed":5,"icon":"icon-stop"},{"label":"鄂DAFCNI","adcode":"421003","adname":"荆州区","location":"112.110533,30.398956","address":"杨场街51附近","state":3,"speed":8,"icon":"icon-stop"},{"label":"鄂DXCZHX","adcode":"421022","adname":"公安县","location":"111.928481,29.887044","address":"襄东大道374号附近","state":3,"speed":8,"icon":"icon-stop"},{"label":"鄂DO2N86","adcode":"421002","adname":"沙市区","location":"112.266938,30.320340","address":"红门路84-5号附近","state":4,"speed":76,"icon":"icon-drive"},{"label":"鄂DW3RBV","adcode":"421024","adname":"江陵县","location":"112.302596,30.160727","address":"教育路39号附近","state":3,"speed":10,"icon":"icon-stop"},{"label":"鄂D39QMK","adcode":"421087","adname":"松滋市","location":"111.928236,30.165216","address":"八宝镇大桥路众鑫米业","state":2,"speed":2,"icon":"icon-stop"},{"label":"鄂DY01ZA","adcode":"421022","adname":"公安县","location":"112.015133,30.052798","address":"斑竹垱镇中心街183号","state":1,"speed":0,"icon":"icon-alerm"},{"label":"鄂D7IHR9","adcode":"421002","adname":"沙市区","location":"112.293698,30.358340","address":"银湖时代斜对面318国道边","state":2,"speed":2,"icon":"icon-stop"},{"label":"鄂DWT0VT","adcode":"421024","adname":"江陵县","location":"112.302596,30.160727","address":"教育路39号附近","state":2,"speed":5,"icon":"icon-stop"},{"label":"鄂D9SQIP","adcode":"421023","adname":"监利县","location":"113.071940,29.809458","address":"S49随岳高速附近","state":0,"speed":0,"icon":"icon-gray"},{"label":"鄂DDDYWS","adcode":"421002","adname":"沙市区","location":"112.293942,30.353659","address":"10号路银湖工业园","state":2,"speed":2,"icon":"icon-stop"},{"label":"鄂DZ3HFY","adcode":"421087","adname":"松滋市","location":"111.899257,30.104366","address":"拉家渡村,邮政储蓄银行附近","state":1,"speed":0,"icon":"icon-alerm"},{"label":"鄂DAJ22S","adcode":"421022","adname":"公安县","location":"112.240674,30.287673","address":"振兴路与新建街交叉口东100米","state":0,"speed":0,"icon":"icon-gray"},{"label":"鄂D2FBXA","adcode":"421022","adname":"公安县","location":"112.293177,30.059228","address":"杨家厂镇政府旁边","state":1,"speed":0,"icon":"icon-alerm"},{"label":"鄂D6OVAL","adcode":"421083","adname":"洪湖市","location":"113.605922,29.908439","address":"103省道乌林派出所附近","state":3,"speed":2,"icon":"icon-stop"},{"label":"鄂DNKWOD","adcode":"421022","adname":"公安县","location":"111.930446,29.887604","address":"襄东大道324号附近","state":2,"speed":2,"icon":"icon-stop"},{"label":"鄂DYCL6G","adcode":"421022","adname":"公安县","location":"112.241047,30.286633","address":"振兴路中国移动旁","state":1,"speed":0,"icon":"icon-alerm"},{"label":"鄂DMM2PX","adcode":"421022","adname":"公安县","location":"112.240087,30.286758","address":"振兴路与新建街交叉口西北50米","state":3,"speed":7,"icon":"icon-stop"},{"label":"鄂D5YMB7","adcode":"421087","adname":"松滋市","location":"111.719166,30.208455","address":"254省道南50米","state":1,"speed":0,"icon":"icon-alerm"},{"label":"鄂DIC0YD","adcode":"421002","adname":"沙市区","location":"112.294262,30.283332","address":"北京东路140号","state":2,"speed":5,"icon":"icon-stop"},{"label":"鄂DDPBVP","adcode":"421002","adname":"沙市区","location":"112.293783,30.358060","address":"318国道附近","state":1,"speed":0,"icon":"icon-alerm"},{"label":"鄂DANAJM","adcode":"421002","adname":"沙市区","location":"112.269359,30.324858","address":"十号路6号","state":1,"speed":0,"icon":"icon-alerm"},{"label":"鄂DES6D0","adcode":"421022","adname":"公安县","location":"112.210619,29.851950","address":"章田寺乡民生路51号","state":1,"speed":0,"icon":"icon-alerm"},{"label":"鄂D4B89W","adcode":"421083","adname":"洪湖市","location":"113.604673,29.909487","address":"黄蓬大道乌林镇中心学校西南角","state":0,"speed":0,"icon":"icon-gray"},{"label":"鄂DU45ID","adcode":"421087","adname":"松滋市","location":"111.928236,30.165216","address":"八宝镇大桥路众鑫米业","state":0,"speed":0,"icon":"icon-gray"},{"label":"鄂D97TVY","adcode":"421003","adname":"荆州区","location":"112.111500,30.399730","address":"连郢路76号","state":4,"speed":62,"icon":"icon-drive"},{"label":"鄂D3SG0T","adcode":"421083","adname":"洪湖市","location":"113.769386,29.937420","address":"S329振兴路和新新路交叉口","state":2,"speed":2,"icon":"icon-stop"},{"label":"鄂D7C0JL","adcode":"421083","adname":"洪湖市","location":"113.767837,29.940358","address":"龙口镇东风大道8号","state":1,"speed":0,"icon":"icon-alerm"},{"label":"鄂DEGB16","adcode":"421022","adname":"公安县","location":"112.024601,29.822777","address":"郑公镇西街55号","state":2,"speed":2,"icon":"icon-stop"},{"label":"鄂DQA2FL","adcode":"421022","adname":"公安县","location":"112.023890,29.826538","address":"汪郑线东50米","state":1,"speed":0,"icon":"icon-alerm"},{"label":"鄂DKMT5U","adcode":"421003","adname":"荆州区","location":"112.167441,30.346118","address":"四机路121号三楼","state":3,"speed":4,"icon":"icon-stop"},{"label":"鄂DAS012","adcode":"421002","adname":"沙市区","location":"112.267088,30.320850","address":"解放路天阳小区","state":3,"speed":8,"icon":"icon-stop"},{"label":"鄂DU2PGC","adcode":"421022","adname":"公安县","location":"112.208246,29.852118","address":"大庙岗附近","state":4,"speed":76,"icon":"icon-drive"},{"label":"鄂DF7LC7","adcode":"421022","adname":"公安县","location":"112.215847,29.851052","address":"章田寺初级中学旁边","state":3,"speed":9,"icon":"icon-stop"},{"label":"鄂DFIY6S","adcode":"421022","adname":"公安县","location":"112.240271,30.287244","address":"振兴路143号","state":3,"speed":9,"icon":"icon-stop"},{"label":"鄂DUWFYG","adcode":"421024","adname":"江陵县","location":"112.302576,30.160669","address":"教育路41号附近","state":2,"speed":4,"icon":"icon-stop"},{"label":"鄂DVMUBQ","adcode":"421022","adname":"公安县","location":"112.075149,30.042502","address":"毛家港镇茅穗里街4号","state":1,"speed":0,"icon":"icon-alerm"},{"label":"鄂D6IZJE","adcode":"421087","adname":"松滋市","location":"111.826314,30.201422","address":"金松大道南50米","state":1,"speed":0,"icon":"icon-alerm"},{"label":"鄂DGWYUZ","adcode":"421087","adname":"松滋市","location":"111.690330,30.229046","address":"陈店镇观岳集镇89号","state":3,"speed":10,"icon":"icon-stop"},{"label":"鄂D21RD9","adcode":"421022","adname":"公安县","location":"112.208841,29.850955","address":"章田寺乡大众路3号","state":3,"speed":6,"icon":"icon-stop"},{"label":"鄂DH19FT","adcode":"421022","adname":"公安县","location":"112.233325,30.287602","address":"埠河镇荆江路264号","state":2,"speed":1,"icon":"icon-stop"},{"label":"鄂DMNEON","adcode":"421083","adname":"洪湖市","location":"113.768950,29.937499","address":"振兴路与新新路交叉口西北50米","state":1,"speed":0,"icon":"icon-alerm"},{"label":"鄂DFP9BB","adcode":"421087","adname":"松滋市","location":"111.899595,30.103547","address":"054县道西50米","state":3,"speed":2,"icon":"icon-stop"},{"label":"鄂DLUKRT","adcode":"421083","adname":"洪湖市","location":"113.602968,29.911671","address":"乌林镇","state":3,"speed":6,"icon":"icon-stop"},{"label":"鄂DY1WWT","adcode":"421002","adname":"沙市区","location":"112.294416,30.282892","address":"北京东路沙隆达宿舍17栋","state":2,"speed":0,"icon":"icon-stop"},{"label":"鄂DCJXHL","adcode":"421023","adname":"监利县","location":"112.905818,29.857108","address":"杨铺村江城北路与发展大道交汇处红绿灯路口","state":2,"speed":1,"icon":"icon-stop"},{"label":"鄂D07OWQ","adcode":"421022","adname":"公安县","location":"111.930745,29.888327","address":"襄东大道383号附近","state":3,"speed":8,"icon":"icon-stop"},{"label":"鄂DNKDM3","adcode":"421024","adname":"江陵县","location":"112.303509,30.162150","address":"新华路与迎宾路交叉口东50米","state":0,"speed":0,"icon":"icon-gray"},{"label":"鄂DWCUY5","adcode":"421024","adname":"江陵县","location":"112.302576,30.160669","address":"教育路41号附近","state":0,"speed":0,"icon":"icon-gray"},{"label":"鄂DTV7RR","adcode":"421087","adname":"松滋市","location":"111.918199,30.168683","address":"322省道东50米","state":0,"speed":0,"icon":"icon-gray"},{"label":"鄂DVXD11","adcode":"421022","adname":"公安县","location":"112.093518,29.851940","address":"孟家溪镇西街与226省道交叉口西南50米","state":2,"speed":2,"icon":"icon-stop"},{"label":"鄂D3XI18","adcode":"421003","adname":"荆州区","location":"112.167478,30.346127","address":"四机路121号附近","state":4,"speed":119,"icon":"icon-drive"},{"label":"鄂DLKHES","adcode":"421002","adname":"沙市区","location":"112.268979,30.323880","address":"立新乡荆沙大道与十号路交叉口号路3号","state":3,"speed":8,"icon":"icon-stop"},{"label":"鄂D3NQ29","adcode":"421022","adname":"公安县","location":"112.219207,30.263814","address":"发展三路与322省道交叉口西北100米","state":2,"speed":3,"icon":"icon-stop"},{"label":"鄂D1F70I","adcode":"421002","adname":"沙市区","location":"112.314075,30.361503","address":"锣场镇318国道大观园农庄附近","state":1,"speed":0,"icon":"icon-alerm"},{"label":"鄂D434A6","adcode":"421024","adname":"江陵县","location":"112.302853,30.162192","address":"新华路与迎宾路交叉口西北50米","state":2,"speed":1,"icon":"icon-stop"},{"label":"鄂DTAIXZ","adcode":"421003","adname":"荆州区","location":"112.110453,30.398987","address":"利民街与花新线交叉口西南100米","state":1,"speed":0,"icon":"icon-alerm"},{"label":"鄂DD97H6","adcode":"421083","adname":"洪湖市","location":"113.771564,29.940546","address":"329省道南50米","state":4,"speed":112,"icon":"icon-drive"},{"label":"鄂DLAX86","adcode":"421083","adname":"洪湖市","location":"113.769073,29.938477","address":"龙口镇龙口小学斜对门","state":3,"speed":2,"icon":"icon-stop"},{"label":"鄂DUSG6R","adcode":"421023","adname":"监利县","location":"112.875610,29.906670","address":"观音村5组","state":2,"speed":2,"icon":"icon-stop"},{"label":"鄂DV8YZT","adcode":"421022","adname":"公安县","location":"112.290867,30.060328","address":"杨麻线与集贸路交叉口东100米","state":2,"speed":4,"icon":"icon-stop"},{"label":"鄂DSHBIQ","adcode":"421023","adname":"监利县","location":"112.875610,29.906670","address":"观音村5组","state":4,"speed":57,"icon":"icon-drive"},{"label":"鄂DYQID4","adcode":"421002","adname":"沙市区","location":"112.292751,30.283759","address":"北京东路东印宿舍红光楼19号","state":3,"speed":3,"icon":"icon-stop"},{"label":"鄂DAQK17","adcode":"421087","adname":"松滋市","location":"111.689000,30.186515","address":[],"state":0,"speed":0,"icon":"icon-gray"},{"label":"鄂D7NJEZ","adcode":"421022","adname":"公安县","location":"112.213250,29.849819","address":"朝阳路8号附近","state":1,"speed":0,"icon":"icon-alerm"},{"label":"鄂DDZ6YF","adcode":"421022","adname":"公安县","location":"112.231547,30.289614","address":"埠河镇财政管理所旁","state":2,"speed":2,"icon":"icon-stop"},{"label":"鄂DHUJQK","adcode":"421022","adname":"公安县","location":"112.213250,29.849819","address":"朝阳路8号附近","state":3,"speed":10,"icon":"icon-stop"},{"label":"鄂DWPK2I","adcode":"421022","adname":"公安县","location":"112.231547,30.289614","address":"埠河镇财政管理所旁","state":1,"speed":0,"icon":"icon-alerm"},{"label":"鄂D9CGV7","adcode":"421083","adname":"洪湖市","location":"113.604673,29.909487","address":"黄蓬大道乌林镇中心学校西南角","state":3,"speed":7,"icon":"icon-stop"},{"label":"鄂DJEDT7","adcode":"421083","adname":"洪湖市","location":"113.771417,29.935209","address":"中山路好公道超市旁","state":2,"speed":2,"icon":"icon-stop"},{"label":"鄂DT97QT","adcode":"421022","adname":"公安县","location":"112.289213,30.060399","address":"建设路与杨麻线交叉口东南50米","state":0,"speed":0,"icon":"icon-gray"},{"label":"鄂DKG4WH","adcode":"421022","adname":"公安县","location":"112.208942,29.850973","address":"民生路桥头1号","state":1,"speed":0,"icon":"icon-alerm"},{"label":"鄂D3YU2P","adcode":"421083","adname":"洪湖市","location":"113.767224,29.940022","address":"龙口镇政府斜对面","state":2,"speed":1,"icon":"icon-stop"},{"label":"鄂DS5ASX","adcode":"421023","adname":"监利县","location":"112.928029,29.908065","address":"毛市镇041县道","state":0,"speed":0,"icon":"icon-gray"},{"label":"鄂D7MIP7","adcode":"421024","adname":"江陵县","location":"112.302840,30.161079","address":"滩桥镇开发区教育路27号","state":1,"speed":0,"icon":"icon-alerm"},{"label":"鄂DKPYH4","adcode":"421003","adname":"荆州区","location":"112.167373,30.346031","address":"四机路95号附近","state":3,"speed":10,"icon":"icon-stop"},{"label":"鄂DDOWEO","adcode":"421002","adname":"沙市区","location":"112.267113,30.320732","address":"胜利街道红门路86号","state":4,"speed":105,"icon":"icon-drive"},{"label":"鄂D9ZY01","adcode":"421087","adname":"松滋市","location":"111.852347,30.187453","address":[],"state":2,"speed":1,"icon":"icon-stop"},{"label":"鄂DZGP90","adcode":"421087","adname":"松滋市","location":"111.928544,30.164884","address":"沙道观镇322省道南(中国农业银行西南350米)","state":4,"speed":77,"icon":"icon-drive"}]}}